# message formats defined: PARAM SYNC ODOM RAWLASER1 RAWLASER2 RAWLASER3 RAWLASER4 ROBOTLASER0 ROBOTLASER1 FLASER RLASER LASER3 LASER4
# (old) # FLASER num_readings [range_readings] x y theta odom_x odom_y odom_theta
# (old) # REMISSIONFLASER num_readings [range_readings remission_value]
FLASER 361 1.40 1.39 1.39 1.39 1.38 1.36 1.37 1.36 1.35 1.34 1.34 1.33 1.33 1.32 1.32 1.31 1.31 1.31 1.32 1.34 1.33 1.30 1.29 1.31 81.91 81.91 81.91 81.91 1.11 81.91 81.91 81.91 81.91 81.91 81.91 81.91 81.91 81.91 81.91 81.91 81.91 81.91 81.91 81.91 81.91 81.91 81.91 81.91 81.91 81.91 81.91 81.91 81.91 81.91 81.91 81.91 81.91 81.91 81.91 81.91 0.78 0.73 0.73 0.71 0.72 0.72 0.72 0.71 0.71 0.71 0.71 0.70 0.71 81.91 81.91 81.91 81.91 81.91 81.91 81.91 81.91 81.91 81.91 81.91 81.91 81.91 81.91 81.91 81.91 81.91 81.91 81.91 81.91 81.91 81.91 81.91 81.91 81.91 81.91 81.91 81.91 81.91 81.91 81.91 81.91 81.91 81.91 81.91 81.91 81.91 81.91 81.91 81.91 1.75 1.72 1.70 1.70 1.71 1.71 1.83 3.35 3.41 3.49 3.57 3.65 3.69 3.68 3.66 3.64 3.62 3.61 3.59 3.58 3.57 3.56 3.55 3.54 3.53 3.52 3.51 3.50 3.50 3.21 2.91 2.91 6.20 6.47 6.79 6.96 6.95 6.95 7.12 6.89 6.87 6.66 6.39 6.37 6.36 6.36 6.35 6.35 6.35 6.36 6.35 6.34 4.37 4.33 4.34 4.34 4.34 4.34 4.34 4.34 4.34 4.34 4.34 4.35 4.35 4.34 4.35 4.36 4.36 4.37 4.37 4.38 4.38 4.38 4.39 4.40 4.41 4.42 4.43 4.43 4.44 4.45 4.46 4.47 4.47 4.48 4.49 4.51 4.51 4.53 4.54 4.56 4.56 4.57 4.59 3.25 3.26 4.64 2.88 2.73 2.78 2.76 2.76 2.77 2.80 2.82 2.83 2.83 2.97 2.98 2.89 2.93 2.96 2.78 2.78 2.79 2.88 5.23 5.25 5.24 5.26 5.34 7.16 7.09 6.99 6.63 6.52 6.51 6.49 6.40 6.31 6.23 6.16 5.99 5.92 5.90 5.91 5.81 5.79 5.83 5.86 5.82 5.76 5.70 5.66 5.61 5.56 5.51 5.47 5.42 5.37 4.76 4.62 4.60 4.56 4.52 4.49 4.46 4.44 4.40 4.37 4.34 4.31 4.28 4.26 4.23 4.21 4.18 4.16 4.13 4.11 4.09 4.07 4.05 4.03 4.01 3.98 3.97 3.95 3.93 3.91 3.89 3.87 3.87 3.85 3.83 3.82 3.80 3.78 3.77 3.76 3.74 3.71 3.69 3.68 3.68 3.67 3.66 3.65 3.64 3.63 3.62 3.61 3.60 3.66 3.82 3.97 4.09 4.10 4.08 4.08 4.07 4.06 4.05 4.05 4.24 4.49 5.06 5.50 5.50 5.67 6.11 6.63 7.17 6.21 6.17 6.09 6.20 6.29 6.21 6.15 6.19 6.46 6.47 6.09 6.53 6.17 11.95 11.89 2.69 2.70 2.67 2.65 2.66 2.65 2.62 2.66 2.70 576.536523 0.106594 -2.255213 576.536523 0.106594 -2.255213 1134864629.895182 b21 0.086295
FLASER 361 1.40 1.40 1.39 1.39 1.37 1.37 1.36 1.36 1.35 1.34 1.34 1.33 1.33 1.32 1.32 1.31 1.31 1.32 1.32 1.34 1.36 1.30 1.29 1.27 81.91 81.91 81.91 81.91 1.11 81.91 81.91 81.91 81.91 81.91 81.91 81.91 81.91 81.91 81.91 81.91 81.91 81.91 81.91 81.91 81.91 81.91 81.91 81.91 81.91 81.91 81.91 81.91 81.91 81.91 81.91 81.91 81.91 81.91 81.91 81.91 0.79 0.75 0.73 0.72 0.72 0.71 0.71 0.71 0.71 0.71 0.71 0.70 0.72 81.91 81.91 81.91 81.91 81.91 81.91 81.91 81.91 81.91 81.91 81.91 81.91 81.91 81.91 81.91 81.91 81.91 81.91 81.91 81.91 81.91 81.91 81.91 81.91 81.91 81.91 81.91 81.91 81.91 81.91 81.91 81.91 81.91 81.91 81.91 81.91 81.91 81.91 81.91 81.91 1.75 1.72 1.70 1.70 1.71 1.71 1.83 3.35 3.41 3.48 3.56 3.65 3.69 3.69 3.65 3.64 3.62 3.61 3.59 3.58 3.57 3.56 3.56 3.55 3.54 3.53 3.51 3.50 3.50 3.22 2.91 2.92 6.20 6.47 6.83 6.96 6.96 6.97 7.12 6.89 6.87 6.65 6.39 6.37 6.36 6.36 6.36 6.35 6.35 6.36 6.35 6.34 4.37 4.34 4.34 4.34 4.34 4.34 4.34 4.34 4.34 4.34 4.34 4.34 4.35 4.35 4.36 4.35 4.36 4.37 4.37 4.38 4.37 4.38 4.39 4.40 4.41 4.41 4.42 4.43 4.44 4.45 4.46 4.47 4.48 4.49 4.50 4.51 4.52 4.53 4.54 4.56 4.57 4.59 4.59 3.25 3.27 4.65 2.86 2.73 2.78 2.76 2.76 2.77 2.80 2.82 2.83 2.82 2.96 2.98 2.89 2.92 2.96 2.78 2.78 2.79 2.89 5.22 5.25 5.24 5.27 5.33 7.17 7.09 7.00 6.63 6.53 6.51 6.48 6.39 6.30 6.24 6.15 5.99 5.92 5.90 5.92 5.82 5.79 5.84 5.86 5.82 5.76 5.71 5.66 5.61 5.56 5.51 5.47 5.42 5.38 4.76 4.62 4.59 4.56 4.52 4.49 4.47 4.44 4.41 4.37 4.34 4.31 4.29 4.26 4.23 4.21 4.18 4.16 4.13 4.11 4.09 4.07 4.05 4.03 4.01 3.99 3.97 3.95 3.93 3.91 3.90 3.88 3.87 3.85 3.83 3.81 3.80 3.78 3.77 3.76 3.74 3.71 3.69 3.69 3.68 3.67 3.66 3.65 3.64 3.63 3.62 3.61 3.60 3.66 3.83 3.98 4.09 4.10 4.09 4.07 4.07 4.06 4.05 4.05 4.25 4.49 5.04 5.50 5.51 5.67 6.11 6.62 7.17 6.21 6.17 6.09 6.20 6.28 6.19 6.14 6.19 6.44 6.48 6.08 6.54 6.18 11.95 11.89 2.71 2.69 2.67 2.65 2.66 2.65 2.62 2.66 2.70 576.536523 0.106594 -2.255213 576.536523 0.106594 -2.255213 1134864630.105179 b21 0.273363
FLASER 361 1.40 1.40 1.39 1.39 1.37 1.36 1.37 1.36 1.35 1.34 1.33 1.33 1.33 1.32 1.32 1.31 1.31 1.31 1.32 1.34 1.34 1.31 1.31 1.29 81.91 81.91 81.91 81.91 1.14 81.91 81.91 81.91 81.91 81.91 81.91 81.91 81.91 81.91 81.91 81.91 81.91 81.91 81.91 81.91 81.91 81.91 81.91 81.91 81.91 81.91 81.91 81.91 81.91 81.91 81.91 81.91 81.91 81.91 81.91 81.91 0.79 0.74 0.72 0.72 0.72 0.71 0.71 0.71 0.71 0.71 0.71 0.71 0.71 81.91 81.91 81.91 81.91 81.91 81.91 81.91 81.91 81.91 81.91 81.91 81.91 81.91 81.91 81.91 81.91 81.91 81.91 81.91 81.91 81.91 81.91 81.91 81.91 81.91 81.91 81.91 81.91 81.91 81.91 81.91 81.91 81.91 81.91 81.91 81.91 81.91 81.91 81.91 81.91 1.75 1.72 1.70 1.70 1.71 1.71 1.83 3.35 3.41 3.49 3.56 3.64 3.69 3.69 3.66 3.64 3.62 3.61 3.59 3.58 3.57 3.56 3.55 3.54 3.54 3.52 3.51 3.52 3.50 3.23 2.91 2.92 6.21 6.48 6.83 6.97 6.96 6.97 7.12 6.89 6.87 6.65 6.39 6.37 6.36 6.36 6.35 6.35 6.35 6.36 6.35 6.34 4.37 4.34 4.34 4.34 4.34 4.34 4.34 4.34 4.34 4.34 4.34 4.34 4.35 4.36 4.35 4.36 4.36 4.36 4.37 4.38 4.37 4.38 4.39 4.40 4.41 4.42 4.42 4.43 4.44 4.45 4.46 4.47 4.48 4.49 4.50 4.51 4.52 4.53 4.54 4.56 4.57 4.57 4.59 3.25 3.27 4.64 2.88 2.73 2.77 2.76 2.75 2.77 2.80 2.82 2.82 2.82 2.95 2.98 2.88 2.93 2.96 2.78 2.78 2.78 2.88 5.23 5.25 5.24 5.27 5.34 7.17 7.09 7.00 6.63 6.53 6.51 6.49 6.39 6.31 6.23 6.15 5.99 5.92 5.91 5.92 5.82 5.79 5.84 5.86 5.82 5.76 5.71 5.66 5.61 5.56 5.51 5.47 5.42 5.38 4.75 4.62 4.58 4.56 4.52 4.49 4.47 4.44 4.41 4.37 4.34 4.31 4.29 4.26 4.23 4.21 4.18 4.16 4.13 4.11 4.09 4.07 4.04 4.02 4.01 3.99 3.97 3.95 3.93 3.91 3.90 3.88 3.87 3.85 3.84 3.81 3.80 3.79 3.77 3.76 3.74 3.71 3.69 3.69 3.68 3.67 3.66 3.65 3.64 3.63 3.62 3.61 3.60 3.66 3.82 3.97 4.09 4.09 4.09 4.08 4.07 4.06 4.05 4.05 4.25 4.49 4.98 5.50 5.51 5.67 6.11 6.62 7.17 6.20 6.17 6.09 6.20 6.28 6.20 6.15 6.20 6.45 6.49 6.08 6.53 6.19 11.95 11.90 2.71 2.69 2.67 2.65 2.66 2.65 2.62 2.67 2.70 576.536523 0.106594 -2.255213 576.536523 0.106594 -2.255213 1134864630.325184 b21 0.472105
FLASER 361 1.40 1.40 1.39 1.39 1.39 1.36 1.37 1.36 1.35 1.34 1.34 1.33 1.33 1.32 1.32 1.31 1.31 1.32 1.32 1.34 1.32 1.29 1.30 1.28 81.91 81.91 81.91 81.91 1.11 81.91 81.91 81.91 81.91 81.91 81.91 81.91 81.91 81.91 81.91 81.91 81.91 81.91 81.91 81.91 81.91 81.91 81.91 81.91 81.91 81.91 81.91 81.91 81.91 81.91 81.91 81.91 81.91 81.91 81.91 81.91 0.79 0.74 0.72 0.72 0.72 0.72 0.71 0.71 0.71 0.71 0.71 0.70 0.72 81.91 81.91 81.91 81.91 81.91 81.91 81.91 81.91 81.91 81.91 81.91 81.91 81.91 81.91 81.91 81.91 81.91 81.91 81.91 81.91 81.91 81.91 81.91 81.91 81.91 81.91 81.91 81.91 81.91 81.91 81.91 81.91 81.91 81.91 81.91 81.91 81.91 81.91 81.91 81.91 1.75 1.72 1.70 1.70 1.71 1.71 1.84 3.35 3.41 3.48 3.56 3.65 3.69 3.69 3.66 3.64 3.62 3.61 3.59 3.58 3.57 3.57 3.56 3.54 3.54 3.53 3.52 3.51 3.50 3.23 2.91 2.92 6.21 6.48 6.80 6.97 6.96 6.97 7.12 6.89 6.87 6.66 6.40 6.37 6.36 6.36 6.36 6.36 6.35 6.36 6.35 6.35 4.37 4.34 4.34 4.34 4.34 4.34 4.34 4.34 4.35 4.34 4.34 4.35 4.35 4.36 4.35 4.36 4.36 4.37 4.37 4.38 4.38 4.38 4.39 4.40 4.41 4.42 4.42 4.43 4.44 4.45 4.46 4.47 4.48 4.49 4.50 4.51 4.52 4.53 4.54 4.56 4.57 4.58 4.59 3.25 3.27 4.65 2.88 2.72 2.77 2.76 2.75 2.76 2.81 2.81 2.81 2.81 2.95 2.98 2.88 2.93 2.96 2.78 2.78 2.79 2.89 5.23 5.25 5.24 5.27 5.34 7.17 7.08 7.00 6.63 6.53 6.51 6.48 6.40 6.30 6.23 6.15 5.99 5.92 5.90 5.92 5.82 5.80 5.84 5.86 5.82 5.76 5.71 5.66 5.61 5.56 5.51 5.47 5.42 5.38 4.76 4.62 4.58 4.56 4.52 4.49 4.47 4.44 4.41 4.37 4.34 4.31 4.29 4.26 4.23 4.21 4.18 4.16 4.13 4.11 4.10 4.07 4.05 4.03 4.01 3.99 3.97 3.95 3.93 3.91 3.90 3.88 3.87 3.85 3.83 3.82 3.80 3.78 3.77 3.76 3.75 3.71 3.70 3.69 3.68 3.67 3.66 3.65 3.64 3.63 3.62 3.61 3.60 3.66 3.83 3.98 4.09 4.09 4.09 4.08 4.07 4.06 4.05 4.05 4.25 4.49 5.06 5.51 5.51 5.67 6.12 6.62 7.16 6.21 6.17 6.09 6.20 6.29 6.20 6.14 6.20 6.46 6.48 6.07 6.54 6.18 11.94 11.89 2.71 2.70 2.67 2.65 2.66 2.65 2.62 2.66 2.70 576.536523 0.106594 -2.255213 576.536523 0.106594 -2.255213 1134864630.535181 b21 0.694686
FLASER 361 1.40 1.40 1.39 1.39 1.38 1.36 1.37 1.36 1.35 1.34 1.33 1.33 1.33 1.32 1.32 1.31 1.30 1.32 1.32 1.34 1.32 1.29 1.30 1.31 81.91 81.91 81.91 81.91 1.11 81.91 81.91 81.91 81.91 81.91 81.91 81.91 81.91 81.91 81.91 81.91 81.91 81.91 81.91 81.91 81.91 81.91 81.91 81.91 81.91 81.91 81.91 81.91 81.91 81.91 81.91 81.91 81.91 81.91 81.91 81.91 0.78 0.74 0.73 0.72 0.72 0.72 0.71 0.71 0.71 0.71 0.71 0.70 0.71 81.91 81.91 81.91 81.91 81.91 81.91 81.91 81.91 81.91 81.91 81.91 81.91 81.91 81.91 81.91 81.91 81.91 81.91 81.91 81.91 81.91 81.91 81.91 81.91 81.91 81.91 81.91 81.91 81.91 81.91 81.91 81.91 81.91 81.91 81.91 81.91 81.91 81.91 81.91 81.91 1.76 1.72 1.70 1.70 1.72 1.71 1.84 3.35 3.41 3.49 3.56 3.64 3.69 3.68 3.66 3.64 3.62 3.61 3.59 3.58 3.57 3.56 3.55 3.55 3.54 3.53 3.52 3.52 3.50 3.22 2.91 2.92 6.21 6.47 6.81 6.97 6.96 6.97 7.12 6.89 6.87 6.66 6.39 6.37 6.36 6.36 6.36 6.35 6.35 6.36 6.35 6.34 4.37 4.34 4.34 4.34 4.34 4.34 4.34 4.34 4.34 4.34 4.34 4.35 4.35 4.36 4.35 4.36 4.36 4.37 4.37 4.38 4.37 4.38 4.39 4.40 4.41 4.42 4.42 4.43 4.44 4.45 4.46 4.47 4.48 4.49 4.50 4.51 4.52 4.53 4.54 4.56 4.57 4.58 4.59 3.25 3.27 4.64 2.87 2.72 2.77 2.76 2.75 2.76 2.80 2.81 2.82 2.81 2.97 2.98 2.87 2.93 2.96 2.78 2.78 2.79 2.89 5.23 5.26 5.24 5.27 5.33 7.17 7.09 7.00 6.63 6.53 6.51 6.47 6.39 6.30 6.23 6.14 5.99 5.92 5.90 5.91 5.82 5.79 5.84 5.86 5.82 5.76 5.71 5.66 5.61 5.56 5.51 5.47 5.42 5.38 4.75 4.62 4.59 4.55 4.52 4.49 4.47 4.43 4.41 4.37 4.34 4.31 4.30 4.26 4.24 4.21 4.18 4.16 4.13 4.11 4.10 4.07 4.05 4.02 4.01 3.99 3.97 3.95 3.93 3.92 3.90 3.88 3.87 3.85 3.83 3.82 3.79 3.78 3.76 3.76 3.74 3.71 3.69 3.69 3.68 3.67 3.66 3.65 3.64 3.63 3.62 3.61 3.61 3.66 3.83 3.97 4.09 4.09 4.09 4.07 4.07 4.06 4.05 4.05 4.25 4.49 5.00 5.50 5.50 5.66 6.11 6.62 7.16 6.21 6.17 6.09 6.20 6.29 6.19 6.14 6.19 6.45 6.48 6.07 6.54 6.18 11.95 11.89 2.70 2.69 2.67 2.65 2.66 2.65 2.62 2.66 2.70 576.536523 0.106594 -2.255213 576.536523 0.106594 -2.255213 1134864630.745188 b21 0.975442
FLASER 361 1.40 1.40 1.39 1.39 1.38 1.37 1.37 1.36 1.35 1.34 1.34 1.33 1.33 1.32 1.31 1.31 1.31 1.31 1.32 1.34 1.34 1.30 1.29 1.28 81.91 81.91 81.91 81.91 1.13 81.91 81.91 81.91 81.91 81.91 81.91 81.91 81.91 81.91 81.91 81.91 81.91 81.91 81.91 81.91 81.91 81.91 81.91 81.91 81.91 81.91 81.91 81.91 81.91 81.91 81.91 81.91 81.91 81.91 81.91 81.91 0.79 0.74 0.73 0.72 0.71 0.71 0.71 0.71 0.71 0.71 0.71 0.71 0.71 81.91 81.91 81.91 81.91 81.91 81.91 81.91 81.91 81.91 81.91 81.91 81.91 81.91 81.91 81.91 81.91 81.91 81.91 81.91 81.91 81.91 81.91 81.91 81.91 81.91 81.91 81.91 81.91 81.91 81.91 81.91 81.91 81.91 81.91 81.91 81.91 81.91 81.91 81.91 81.91 1.75 1.72 1.70 1.70 1.71 1.71 1.83 3.35 3.41 3.48 3.56 3.65 3.70 3.69 3.66 3.64 3.62 3.61 3.59 3.58 3.57 3.56 3.55 3.54 3.54 3.52 3.51 3.50 3.50 3.25 2.91 2.92 6.20 6.48 6.81 6.97 6.96 6.97 7.12 6.90 6.87 6.66 6.39 6.37 6.36 6.36 6.36 6.35 6.35 6.36 6.35 6.34 4.37 4.35 4.36 4.35 4.35 4.35 4.35 4.35 4.35 4.34 4.34 4.35 4.35 4.35 4.36 4.36 4.36 4.37 4.37 4.38 4.39 4.38 4.39 4.40 4.41 4.42 4.42 4.43 4.44 4.45 4.46 4.47 4.48 4.49 4.50 4.52 4.53 4.53 4.54 4.56 4.57 4.58 4.59 3.25 3.27 4.64 2.88 2.73 2.77 2.76 2.75 2.76 2.80 2.81 2.83 2.82 2.96 2.98 2.89 2.93 2.97 2.78 2.78 2.79 2.89 5.23 5.26 5.24 5.27 5.34 5.40 7.09 7.00 6.63 6.53 6.51 6.48 6.41 6.30 6.23 6.15 5.99 5.92 5.91 5.91 5.82 5.79 5.84 5.86 5.83 5.77 5.71 5.66 5.61 5.56 5.51 5.47 5.42 5.38 4.75 4.62 4.58 4.56 4.52 4.50 4.47 4.44 4.40 4.37 4.34 4.31 4.29 4.26 4.23 4.21 4.18 4.16 4.13 4.12 4.10 4.07 4.05 4.03 4.01 3.99 3.97 3.95 3.93 3.91 3.89 3.89 3.87 3.85 3.83 3.82 3.80 3.78 3.77 3.76 3.74 3.71 3.70 3.69 3.68 3.67 3.66 3.65 3.64 3.63 3.62 3.61 3.60 3.67 3.83 3.97 4.09 4.10 4.08 4.08 4.06 4.06 4.05 4.05 4.25 4.50 5.10 5.50 5.50 5.67 6.11 6.61 7.17 6.21 6.17 6.09 6.20 6.29 6.20 6.13 6.19 6.44 6.48 6.07 6.53 6.19 11.95 11.89 2.70 2.70 2.67 2.65 2.66 2.65 2.62 2.66 2.71 576.536523 0.106594 -2.255213 576.536523 0.106594 -2.255213 1134864630.966179 b21 1.183199
FLASER 361 1.40 1.40 1.39 1.38 1.38 1.36 1.37 1.36 1.35 1.34 1.33 1.33 1.33 1.32 1.31 1.31 1.31 1.32 1.31 1.34 1.33 1.31 1.29 81.91 81.91 81.91 81.91 81.91 1.14 81.91 81.91 81.91 81.91 81.91 81.91 81.91 81.91 81.91 81.91 81.91 81.91 81.91 81.91 81.91 81.91 81.91 81.91 81.91 81.91 81.91 81.91 81.91 81.91 81.91 81.91 81.91 81.91 81.91 81.91 81.91 0.79 0.74 0.73 0.72 0.72 0.72 0.71 0.71 0.71 0.71 0.71 0.70 0.71 81.91 81.91 81.91 81.91 81.91 81.91 81.91 81.91 81.91 81.91 81.91 81.91 81.91 81.91 81.91 81.91 81.91 81.91 81.91 81.91 81.91 81.91 81.91 81.91 81.91 81.91 81.91 81.91 81.91 81.91 81.91 81.91 81.91 81.91 81.91 81.91 81.91 81.91 81.91 81.91 1.76 1.72 1.70 1.70 1.71 1.71 1.83 3.35 3.41 3.49 3.56 3.65 3.69 3.69 3.66 3.64 3.62 3.61 3.59 3.58 3.57 3.56 3.55 3.54 3.52 3.52 3.51 3.51 3.50 3.23 2.91 2.93 6.20 6.48 6.82 6.96 6.96 6.97 7.12 6.89 6.87 6.67 6.39 6.37 6.36 6.36 6.36 6.35 6.35 6.36 6.35 6.34 4.37 4.34 4.34 4.34 4.34 4.34 4.34 4.34 4.33 4.34 4.34 4.35 4.35 4.35 4.35 4.36 4.36 4.37 4.37 4.38 4.38 4.38 4.39 4.40 4.41 4.42 4.42 4.43 4.45 4.45 4.46 4.47 4.48 4.49 4.50 4.51 4.52 4.53 4.54 4.56 4.57 4.58 4.59 3.25 3.27 4.65 2.88 2.72 2.77 2.76 2.75 2.76 2.80 2.82 2.83 2.82 2.96 2.97 2.88 2.93 2.97 2.79 2.78 2.79 2.90 5.23 5.26 5.24 5.27 5.33 7.17 7.08 7.00 6.62 6.53 6.51 6.49 6.40 6.30 6.23 6.14 5.99 5.92 5.91 5.92 5.82 5.80 5.84 5.86 5.82 5.76 5.71 5.66 5.61 5.56 5.51 5.47 5.42 5.38 4.75 4.62 4.58 4.56 4.52 4.49 4.47 4.44 4.41 4.37 4.34 4.31 4.29 4.26 4.23 4.21 4.18 4.16 4.13 4.11 4.09 4.07 4.05 4.03 4.01 3.99 3.97 3.95 3.93 3.91 3.90 3.88 3.87 3.85 3.83 3.82 3.80 3.78 3.77 3.76 3.74 3.71 3.70 3.69 3.68 3.67 3.66 3.65 3.64 3.63 3.62 3.61 3.60 3.66 3.82 3.98 4.09 4.09 4.09 4.07 4.07 4.05 4.05 4.05 4.25 4.49 4.99 5.51 5.51 5.66 6.11 6.62 7.16 6.20 6.18 6.09 6.20 6.29 6.20 6.14 6.20 6.45 6.48 6.07 6.53 6.17 11.94 11.90 2.71 2.69 2.67 2.65 2.66 2.65 2.62 2.66 2.70 576.536523 0.106594 -2.255213 576.536523 0.106594 -2.255213 1134864631.175178 b21 1.379620
FLASER 361 1.40 1.39 1.39 1.38 1.37 1.36 1.37 1.36 1.36 1.34 1.34 1.33 1.32 1.32 1.31 1.31 1.31 1.32 1.32 1.35 1.34 1.30 1.30 1.31 81.91 81.91 81.91 81.91 1.13 81.91 81.91 81.91 81.91 81.91 81.91 81.91 81.91 81.91 81.91 81.91 81.91 81.91 81.91 81.91 81.91 81.91 81.91 81.91 81.91 81.91 81.91 81.91 81.91 81.91 81.91 81.91 81.91 81.91 81.91 81.91 0.80 0.73 0.73 0.72 0.72 0.71 0.71 0.71 0.71 0.71 0.71 0.70 0.71 81.91 81.91 81.91 81.91 81.91 81.91 81.91 81.91 81.91 81.91 81.91 81.91 81.91 81.91 81.91 81.91 81.91 81.91 81.91 81.91 81.91 81.91 81.91 81.91 81.91 81.91 81.91 81.91 81.91 81.91 81.91 81.91 81.91 81.91 81.91 81.91 81.91 81.91 81.91 81.91 1.76 1.72 1.70 1.70 1.71 1.71 1.84 3.35 3.41 3.48 3.56 3.65 3.69 3.68 3.66 3.64 3.63 3.61 3.60 3.58 3.57 3.56 3.55 3.55 3.53 3.52 3.51 3.51 3.50 3.23 2.91 2.91 6.21 6.48 6.82 6.97 6.95 6.96 7.12 6.89 6.87 6.66 6.39 6.37 6.37 6.36 6.36 6.35 6.35 6.36 6.35 6.35 4.37 4.34 4.34 4.34 4.34 4.34 4.34 4.34 4.35 4.34 4.34 4.35 4.35 4.35 4.35 4.36 4.36 4.37 4.37 4.38 4.37 4.38 4.39 4.40 4.41 4.42 4.42 4.43 4.44 4.45 4.46 4.47 4.47 4.48 4.50 4.51 4.52 4.53 4.54 4.56 4.57 4.58 4.59 3.25 3.26 4.65 2.87 2.72 2.77 2.76 2.75 2.76 2.81 2.81 2.82 2.81 2.97 2.98 2.88 2.93 2.96 2.78 2.78 2.78 2.88 5.23 5.25 5.24 5.27 5.34 7.16 7.09 6.99 6.63 6.52 6.50 6.49 6.39 6.30 6.23 6.15 5.99 5.92 5.90 5.92 5.82 5.79 5.83 5.86 5.82 5.76 5.71 5.66 5.61 5.56 5.51 5.47 5.42 5.37 4.76 4.62 4.58 4.55 4.52 4.49 4.46 4.44 4.41 4.37 4.34 4.31 4.28 4.26 4.24 4.21 4.18 4.16 4.13 4.11 4.09 4.07 4.05 4.03 4.01 3.98 3.97 3.95 3.93 3.91 3.89 3.88 3.87 3.85 3.83 3.82 3.80 3.78 3.77 3.75 3.74 3.71 3.69 3.69 3.68 3.68 3.67 3.65 3.64 3.63 3.63 3.61 3.60 3.65 3.82 3.97 4.09 4.10 4.09 4.08 4.06 4.06 4.04 4.05 4.24 4.49 5.04 5.51 5.50 5.65 6.11 6.62 7.17 6.21 6.18 6.08 6.20 6.29 6.20 6.14 6.20 6.44 6.46 6.08 6.53 6.17 11.95 11.89 2.69 2.69 2.67 2.65 2.66 2.64 2.62 2.67 2.70 576.536523 0.106594 -2.255213 576.536523 0.106594 -2.255213 1134864631.386179 b21 1.617598
FLASER 361 1.40 1.39 1.38 1.38 1.38 1.36 1.36 1.36 1.35 1.34 1.34 1.33 1.33 1.32 1.32 1.31 1.31 1.31 1.32 1.34 1.34 1.30 1.30 1.30 81.91 81.91 81.91 81.91 1.11 81.91 81.91 81.91 81.91 81.91 81.91 81.91 81.91 81.91 81.91 81.91 81.91 81.91 81.91 81.91 81.91 81.91 81.91 81.91 81.91 81.91 81.91 81.91 81.91 81.91 81.91 81.91 81.91 81.91 81.91 81.91 0.80 0.73 0.72 0.72 0.71 0.71 0.71 0.71 0.71 0.71 0.71 0.70 0.71 81.91 81.91 81.91 81.91 81.91 81.91 81.91 81.91 81.91 81.91 81.91 81.91 81.91 81.91 81.91 81.91 81.91 81.91 81.91 81.91 81.91 81.91 81.91 81.91 81.91 81.91 81.91 81.91 81.91 81.91 81.91 81.91 81.91 81.91 81.91 81.91 81.91 81.91 81.91 81.91 1.76 1.72 1.70 1.70 1.71 1.71 1.83 3.34 3.42 3.49 3.57 3.64 3.69 3.68 3.66 3.64 3.62 3.61 3.59 3.58 3.57 3.56 3.56 3.55 3.54 3.53 3.52 3.51 3.50 3.23 2.90 2.91 6.21 6.47 6.82 6.97 6.95 6.96 7.11 6.89 6.87 6.66 6.39 6.37 6.36 6.36 6.36 6.35 6.35 6.36 6.35 6.34 4.38 4.34 4.35 4.34 4.34 4.34 4.34 4.34 4.34 4.34 4.34 4.35 4.35 4.34 4.35 4.36 4.36 4.37 4.37 4.38 4.38 4.38 4.39 4.40 4.41 4.42 4.43 4.43 4.44 4.45 4.46 4.46 4.47 4.48 4.49 4.51 4.52 4.53 4.54 4.56 4.57 4.58 4.59 3.24 3.26 4.64 2.86 2.72 2.77 2.76 2.75 2.76 2.80 2.80 2.81 2.81 2.96 2.98 2.87 2.94 2.95 2.78 2.78 2.79 2.89 5.23 5.26 5.24 5.27 5.34 7.16 7.09 6.99 6.63 6.52 6.50 6.49 6.38 6.30 6.23 6.15 5.99 5.91 5.90 5.92 5.82 5.79 5.83 5.86 5.82 5.76 5.71 5.66 5.61 5.56 5.51 5.47 5.42 5.37 4.75 4.62 4.58 4.56 4.52 4.50 4.46 4.44 4.41 4.37 4.34 4.31 4.28 4.26 4.23 4.21 4.18 4.16 4.13 4.11 4.09 4.07 4.04 4.03 4.00 3.98 3.97 3.95 3.93 3.91 3.90 3.88 3.86 3.85 3.84 3.82 3.80 3.78 3.77 3.76 3.74 3.71 3.69 3.68 3.67 3.66 3.66 3.65 3.64 3.64 3.62 3.62 3.60 3.65 3.82 3.98 4.09 4.09 4.09 4.07 4.07 4.05 4.05 4.04 4.24 4.49 5.06 5.51 5.50 5.66 6.10 6.62 7.16 6.21 6.17 6.09 6.20 6.29 6.20 6.14 6.19 6.46 6.46 6.07 6.53 6.18 11.95 11.90 2.70 2.69 2.67 2.65 2.66 2.65 2.62 2.66 2.70 576.536523 0.106594 -2.255213 576.536523 0.106594 -2.255213 1134864631.606184 b21 1.790682
FLASER 361 1.40 1.39 1.38 1.38 1.37 1.36 1.36 1.36 1.35 1.34 1.34 1.33 1.33 1.32 1.32 1.31 1.31 1.31 1.32 1.34 1.34 1.30 1.28 1.26 81.91 81.91 81.91 81.91 1.12 81.91 81.91 81.91 81.91 81.91 81.91 81.91 81.91 81.91 81.91 81.91 81.91 81.91 81.91 81.91 81.91 81.91 81.91 81.91 81.91 81.91 81.91 81.91 81.91 81.91 81.91 81.91 81.91 81.91 81.91 81.91 0.79 0.73 0.73 0.72 0.72 0.72 0.72 0.71 0.71 0.71 0.71 0.70 0.72 81.91 81.91 81.91 81.91 81.91 81.91 81.91 81.91 81.91 81.91 81.91 81.91 81.91 81.91 81.91 81.91 81.91 81.91 81.91 81.91 81.91 81.91 81.91 81.91 81.91 81.91 81.91 81.91 81.91 81.91 81.91 81.91 81.91 81.91 81.91 81.91 81.91 81.91 81.91 81.91 1.75 1.72 1.70 1.70 1.71 1.71 1.83 3.34 3.41 3.49 3.55 3.64 3.69 3.68 3.66 3.64 3.63 3.61 3.60 3.58 3.57 3.57 3.55 3.55 3.54 3.53 3.52 3.52 3.50 3.23 2.90 2.91 6.20 6.48 6.79 6.97 6.95 6.96 7.12 6.90 6.87 6.66 6.39 6.37 6.36 6.36 6.35 6.35 6.35 6.36 6.35 6.34 4.38 4.34 4.33 4.33 4.34 4.34 4.34 4.34 4.35 4.34 4.34 4.35 4.35 4.35 4.35 4.36 4.36 4.37 4.37 4.38 4.39 4.38 4.39 4.40 4.41 4.42 4.43 4.43 4.44 4.45 4.46 4.46 4.47 4.48 4.50 4.51 4.52 4.53 4.54 4.56 4.57 4.59 4.59 3.24 3.26 4.65 2.87 2.72 2.77 2.76 2.75 2.76 2.81 2.81 2.81 2.82 2.97 2.98 2.88 2.93 2.96 2.78 2.78 2.79 2.90 5.23 5.25 5.24 5.27 5.34 7.16 7.09 6.99 6.63 6.52 6.50 6.49 6.39 6.30 6.22 6.14 5.99 5.92 5.90 5.92 5.82 5.79 5.83 5.86 5.82 5.76 5.71 5.66 5.61 5.56 5.51 5.47 5.42 5.38 4.75 4.62 4.58 4.56 4.52 4.49 4.46 4.44 4.41 4.37 4.34 4.31 4.29 4.27 4.23 4.21 4.18 4.16 4.13 4.11 4.09 4.07 4.05 4.03 4.01 3.98 3.97 3.95 3.93 3.91 3.90 3.87 3.86 3.85 3.83 3.82 3.80 3.79 3.77 3.76 3.74 3.71 3.69 3.69 3.67 3.67 3.66 3.65 3.64 3.63 3.62 3.61 3.60 3.66 3.82 3.96 4.09 4.09 4.09 4.08 4.07 4.06 4.05 4.05 4.24 4.49 5.07 5.50 5.51 5.66 6.11 6.62 7.17 6.20 6.17 6.09 6.20 6.28 6.19 6.13 6.19 6.44 6.47 6.07 6.54 6.19 11.95 11.90 2.69 2.69 2.67 2.65 2.66 2.65 2.62 2.66 2.70 576.536523 0.106594 -2.255213 576.536523 0.106594 -2.255213 1134864631.816181 b21 1.986828
FLASER 361 1.39 1.39 1.38 1.38 1.36 1.36 1.37 1.36 1.35 1.34 1.34 1.33 1.33 1.32 1.32 1.32 1.31 1.32 1.32 1.34 1.34 1.30 1.31 1.27 81.91 81.91 81.91 81.91 1.12 81.91 81.91 81.91 81.91 81.91 81.91 81.91 81.91 81.91 81.91 81.91 81.91 81.91 81.91 81.91 81.91 81.91 81.91 81.91 81.91 81.91 81.91 81.91 81.91 81.91 81.91 81.91 81.91 81.91 81.91 81.91 0.79 0.73 0.73 0.72 0.72 0.71 0.71 0.71 0.71 0.71 0.71 0.69 0.71 81.91 81.91 81.91 81.91 81.91 81.91 81.91 81.91 81.91 81.91 81.91 81.91 81.91 81.91 81.91 81.91 81.91 81.91 81.91 81.91 81.91 81.91 81.91 81.91 81.91 81.91 81.91 81.91 81.91 81.91 81.91 81.91 81.91 81.91 81.91 81.91 81.91 81.91 81.91 81.91 1.76 1.72 1.70 1.70 1.71 1.71 1.84 3.34 3.41 3.49 3.56 3.64 3.69 3.68 3.65 3.64 3.62 3.61 3.59 3.58 3.57 3.57 3.55 3.55 3.54 3.52 3.52 3.51 3.50 3.21 2.90 2.92 6.21 6.47 6.82 6.97 6.95 6.95 7.12 6.89 6.86 6.66 6.39 6.37 6.36 6.36 6.36 6.35 6.35 6.37 6.35 6.34 4.37 4.34 4.34 4.34 4.34 4.34 4.34 4.34 4.35 4.34 4.34 4.35 4.35 4.36 4.35 4.36 4.36 4.37 4.37 4.38 4.38 4.38 4.39 4.40 4.41 4.42 4.42 4.43 4.44 4.44 4.45 4.46 4.47 4.48 4.49 4.51 4.52 4.53 4.54 4.56 4.57 4.58 4.59 3.24 3.26 4.65 2.88 2.72 2.77 2.76 2.75 2.75 2.80 2.81 2.82 2.82 2.96 2.98 2.88 2.93 2.96 2.77 2.78 2.78 2.89 5.23 5.25 5.24 5.27 5.34 5.40 7.09 6.99 6.63 6.52 6.50 6.48 6.39 6.29 6.23 6.15 5.99 5.92 5.91 5.92 5.81 5.79 5.83 5.86 5.82 5.76 5.71 5.66 5.61 5.56 5.51 5.46 5.43 5.38 4.75 4.62 4.59 4.56 4.53 4.49 4.46 4.43 4.41 4.37 4.34 4.31 4.28 4.26 4.23 4.21 4.18 4.16 4.13 4.11 4.08 4.07 4.05 4.03 4.01 3.98 3.97 3.95 3.93 3.91 3.90 3.88 3.86 3.85 3.83 3.82 3.80 3.78 3.77 3.76 3.74 3.71 3.69 3.68 3.67 3.66 3.65 3.64 3.64 3.62 3.62 3.61 3.60 3.66 3.82 3.96 4.08 4.09 4.09 4.07 4.07 4.06 4.05 4.04 4.24 4.49 4.98 5.50 5.51 5.66 6.11 6.62 7.17 6.20 6.18 6.09 6.20 6.29 6.20 6.13 6.18 6.45 6.47 6.08 6.54 6.19 11.95 11.88 2.70 2.69 2.67 2.65 2.66 2.65 2.62 2.67 2.71 576.536523 0.106594 -2.255213 576.536523 0.106594 -2.255213 1134864632.026183 b21 2.193894
FLASER 361 1.40 1.39 1.38 1.38 1.38 1.36 1.37 1.36 1.35 1.34 1.33 1.33 1.33 1.32 1.32 1.31 1.31 1.31 1.32 1.34 1.33 1.30 1.27 1.29 81.91 81.91 81.91 81.91 1.12 81.91 81.91 81.91 81.91 81.91 81.91 81.91 81.91 81.91 81.91 81.91 81.91 81.91 81.91 81.91 81.91 81.91 81.91 81.91 81.91 81.91 81.91 81.91 81.91 81.91 81.91 81.91 81.91 81.91 81.91 81.91 0.78 0.73 0.73 0.72 0.72 0.72 0.72 0.71 0.71 0.71 0.71 0.69 0.71 81.91 81.91 81.91 81.91 81.91 81.91 81.91 81.91 81.91 81.91 81.91 81.91 81.91 81.91 81.91 81.91 81.91 81.91 81.91 81.91 81.91 81.91 81.91 81.91 81.91 81.91 81.91 81.91 81.91 81.91 81.91 81.91 81.91 81.91 81.91 81.91 81.91 81.91 81.91 81.91 1.75 1.72 1.70 1.70 1.71 1.71 1.83 3.34 3.41 3.49 3.56 3.64 3.69 3.68 3.66 3.64 3.62 3.61 3.59 3.58 3.58 3.56 3.55 3.54 3.53 3.52 3.51 3.51 3.50 3.20 2.90 2.91 6.20 6.47 6.83 6.97 6.95 6.96 7.12 6.90 6.87 6.65 6.39 6.37 6.36 6.36 6.36 6.35 6.35 6.36 6.35 6.34 4.37 4.34 4.33 4.34 4.34 4.34 4.34 4.34 4.35 4.34 4.34 4.34 4.35 4.35 4.35 4.36 4.36 4.37 4.37 4.38 4.37 4.38 4.39 4.40 4.41 4.42 4.43 4.43 4.44 4.45 4.46 4.46 4.47 4.47 4.50 4.50 4.52 4.53 4.55 4.56 4.57 4.58 4.59 3.24 3.26 4.64 2.88 2.72 2.77 2.76 2.75 2.77 2.80 2.81 2.82 2.82 2.95 2.98 2.89 2.93 2.96 2.78 2.78 2.78 2.89 5.23 5.26 5.24 5.27 5.34 5.41 7.09 6.99 6.63 6.52 6.50 6.49 6.38 6.30 6.23 6.15 5.98 5.92 5.90 5.92 5.82 5.79 5.83 5.86 5.82 5.75 5.71 5.66 5.61 5.56 5.52 5.47 5.43 5.37 4.75 4.62 4.58 4.56 4.53 4.49 4.46 4.44 4.41 4.37 4.34 4.31 4.28 4.26 4.23 4.21 4.18 4.16 4.13 4.11 4.09 4.07 4.05 4.03 4.01 3.98 3.97 3.95 3.93 3.91 3.90 3.88 3.86 3.85 3.83 3.82 3.80 3.78 3.77 3.76 3.74 3.71 3.70 3.69 3.67 3.66 3.66 3.65 3.64 3.63 3.62 3.61 3.60 3.66 3.82 3.96 4.09 4.09 4.09 4.08 4.07 4.05 4.05 4.05 4.25 4.49 5.06 5.50 5.51 5.66 6.12 6.62 7.16 6.21 6.17 6.09 6.20 6.29 6.19 6.14 6.19 6.45 6.46 6.08 6.53 6.17 11.94 11.89 2.70 2.69 2.67 2.65 2.66 2.65 2.62 2.67 2.70 576.536523 0.106594 -2.255213 576.536523 0.106594 -2.255213 1134864632.246207 b21 2.400522
FLASER 361 1.40 1.39 1.38 1.38 1.37 1.36 1.37 1.36 1.35 1.34 1.33 1.33 1.33 1.32 1.32 1.31 1.31 1.31 1.32 1.36 1.32 1.31 1.29 1.28 81.91 81.91 81.91 81.91 1.12 81.91 81.91 81.91 81.91 81.91 81.91 81.91 81.91 81.91 81.91 81.91 81.91 81.91 81.91 81.91 81.91 81.91 81.91 81.91 81.91 81.91 81.91 81.91 81.91 81.91 81.91 81.91 81.91 81.91 81.91 81.91 0.80 0.74 0.74 0.72 0.72 0.71 0.72 0.71 0.71 0.71 0.71 0.70 0.71 81.91 81.91 81.91 81.91 81.91 81.91 81.91 81.91 81.91 81.91 81.91 81.91 81.91 81.91 81.91 81.91 81.91 81.91 81.91 81.91 81.91 81.91 81.91 81.91 81.91 81.91 81.91 81.91 81.91 81.91 81.91 81.91 81.91 81.91 81.91 81.91 81.91 81.91 81.91 81.91 1.75 1.72 1.70 1.70 1.71 1.71 1.84 3.34 3.41 3.48 3.56 3.64 3.69 3.68 3.66 3.64 3.62 3.61 3.59 3.58 3.57 3.56 3.55 3.55 3.54 3.52 3.51 3.51 3.50 3.23 2.90 2.92 6.21 6.47 6.79 6.97 6.95 6.95 7.12 6.89 6.87 6.66 6.39 6.37 6.36 6.36 6.36 6.35 6.35 6.36 6.35 6.34 4.37 4.34 4.34 4.33 4.34 4.34 4.34 4.34 4.35 4.34 4.34 4.35 4.35 4.35 4.35 4.36 4.36 4.37 4.37 4.37 4.37 4.38 4.39 4.40 4.41 4.41 4.42 4.43 4.44 4.45 4.46 4.46 4.47 4.48 4.50 4.51 4.52 4.53 4.55 4.56 4.58 4.58 4.60 3.24 3.26 4.64 2.88 2.72 2.77 2.76 2.75 2.76 2.80 2.81 2.81 2.82 2.95 2.98 2.87 2.94 2.96 2.78 2.78 2.78 2.88 5.23 5.26 5.24 5.27 5.33 5.40 7.09 6.99 6.63 6.52 6.50 6.48 6.39 6.30 6.22 6.14 5.99 5.92 5.91 5.92 5.82 5.79 5.83 5.86 5.82 5.76 5.70 5.66 5.61 5.56 5.51 5.47 5.42 5.38 4.75 4.62 4.58 4.55 4.52 4.49 4.46 4.44 4.41 4.37 4.34 4.31 4.28 4.26 4.24 4.21 4.18 4.16 4.13 4.11 4.09 4.07 4.05 4.03 4.01 3.98 3.97 3.95 3.93 3.91 3.89 3.88 3.86 3.85 3.83 3.81 3.80 3.78 3.77 3.76 3.74 3.71 3.69 3.68 3.67 3.66 3.66 3.65 3.64 3.63 3.62 3.61 3.61 3.66 3.82 3.96 4.09 4.09 4.09 4.08 4.07 4.06 4.05 4.05 4.25 4.49 5.13 5.50 5.51 5.66 6.11 6.63 7.17 6.21 6.17 6.09 6.20 6.29 6.19 6.13 6.19 6.45 6.47 6.09 6.54 6.17 11.95 11.89 2.69 2.69 2.67 2.65 2.66 2.65 2.62 2.66 2.70 576.536523 0.106594 -2.255213 576.536523 0.106594 -2.255213 1134864632.456211 b21 2.647026
FLASER 361 1.39 1.39 1.38 1.38 1.37 1.36 1.36 1.36 1.35 1.34 1.33 1.33 1.33 1.32 1.32 1.31 1.31 1.31 1.32 1.34 1.36 1.30 1.28 1.30 81.91 81.91 81.91 81.91 1.12 81.91 81.91 81.91 81.91 81.91 81.91 81.91 81.91 81.91 81.91 81.91 81.91 81.91 81.91 81.91 81.91 81.91 81.91 81.91 81.91 81.91 81.91 81.91 81.91 81.91 81.91 81.91 81.91 81.91 81.91 81.91 0.80 0.74 0.73 0.72 0.72 0.71 0.71 0.71 0.71 0.71 0.71 0.70 0.70 81.91 81.91 81.91 81.91 81.91 81.91 81.91 81.91 81.91 81.91 81.91 81.91 81.91 81.91 81.91 81.91 81.91 81.91 81.91 81.91 81.91 81.91 81.91 81.91 81.91 81.91 81.91 81.91 81.91 81.91 81.91 81.91 81.91 81.91 81.91 81.91 81.91 81.91 81.91 81.91 1.75 1.72 1.70 1.70 1.71 1.71 1.84 3.34 3.41 3.49 3.56 3.64 3.69 3.68 3.66 3.64 3.63 3.61 3.60 3.58 3.57 3.57 3.56 3.55 3.54 3.52 3.52 3.50 3.50 3.22 2.89 2.91 6.21 6.47 6.80 6.96 6.96 6.96 7.12 6.89 6.87 6.65 6.39 6.37 6.36 6.36 6.36 6.35 6.35 6.37 6.35 6.34 4.38 4.34 4.35 4.34 4.34 4.34 4.34 4.34 4.35 4.34 4.34 4.35 4.35 4.34 4.35 4.35 4.36 4.37 4.37 4.38 4.38 4.38 4.39 4.40 4.41 4.42 4.42 4.44 4.44 4.46 4.46 4.46 4.47 4.48 4.49 4.51 4.52 4.53 4.54 4.56 4.57 4.58 4.59 3.25 3.26 4.64 2.86 2.72 2.78 2.77 2.76 2.77 2.80 2.82 2.82 2.82 2.95 2.98 2.88 2.93 2.96 2.78 2.78 2.78 2.90 5.23 5.26 5.24 5.27 5.33 5.34 7.09 6.99 6.62 6.52 6.50 6.49 6.39 6.30 6.23 6.14 5.98 5.92 5.90 5.92 5.82 5.79 5.82 5.86 5.82 5.76 5.71 5.66 5.61 5.56 5.51 5.47 5.42 5.37 4.75 4.62 4.58 4.56 4.52 4.49 4.46 4.44 4.41 4.37 4.34 4.31 4.28 4.26 4.23 4.21 4.18 4.16 4.13 4.11 4.09 4.07 4.05 4.03 4.01 3.98 3.97 3.95 3.93 3.92 3.90 3.87 3.86 3.85 3.83 3.82 3.80 3.79 3.77 3.76 3.74 3.71 3.70 3.69 3.68 3.66 3.66 3.65 3.64 3.63 3.62 3.61 3.60 3.66 3.82 3.97 4.09 4.10 4.09 4.08 4.07 4.06 4.05 4.05 4.24 4.48 5.08 5.51 5.51 5.67 6.12 6.63 7.17 6.21 6.17 6.08 6.20 6.29 6.20 6.14 6.20 6.46 6.46 6.08 6.54 6.17 11.94 11.89 2.69 2.68 2.67 2.65 2.65 2.64 2.62 2.67 2.70 576.536523 0.106594 -2.255213 576.536523 0.106594 -2.255213 1134864632.666323 b21 2.857921
FLASER 361 1.40 1.39 1.39 1.39 1.37 1.36 1.36 1.35 1.35 1.34 1.34 1.33 1.33 1.32 1.31 1.30 1.31 1.31 1.32 1.34 1.35 1.32 1.29 1.30 81.91 81.91 81.91 81.91 1.14 81.91 81.91 81.91 81.91 81.91 81.91 81.91 81.91 81.91 81.91 81.91 81.91 81.91 81.91 81.91 81.91 81.91 81.91 81.91 81.91 81.91 81.91 81.91 81.91 81.91 81.91 81.91 81.91 81.91 81.91 81.91 0.80 0.74 0.73 0.72 0.71 0.72 0.71 0.71 0.71 0.71 0.71 0.71 0.71 81.91 81.91 81.91 81.91 81.91 81.91 81.91 81.91 81.91 81.91 81.91 81.91 81.91 81.91 81.91 81.91 81.91 81.91 81.91 81.91 81.91 81.91 81.91 81.91 81.91 81.91 81.91 81.91 81.91 81.91 81.91 81.91 81.91 81.91 81.91 81.91 81.91 81.91 81.91 81.91 1.75 1.72 1.70 1.70 1.72 1.71 1.84 3.34 3.41 3.48 3.56 3.65 3.68 3.68 3.65 3.64 3.62 3.61 3.60 3.59 3.58 3.57 3.55 3.55 3.54 3.53 3.52 3.51 3.51 3.23 2.90 2.92 6.21 6.48 6.83 6.96 6.96 6.96 7.12 6.89 6.87 6.66 6.39 6.37 6.36 6.36 6.36 6.35 6.35 6.36 6.34 6.34 4.38 4.34 4.34 4.34 4.34 4.34 4.34 4.34 4.34 4.34 4.34 4.35 4.35 4.35 4.36 4.36 4.36 4.36 4.37 4.38 4.39 4.39 4.40 4.40 4.41 4.42 4.43 4.43 4.44 4.45 4.46 4.47 4.47 4.48 4.49 4.51 4.52 4.53 4.54 4.56 4.57 4.58 4.60 3.25 3.26 4.65 2.87 2.73 2.78 2.77 2.76 2.77 2.80 2.81 2.83 2.81 2.95 2.98 2.88 2.94 2.96 2.78 2.78 2.78 2.89 5.23 5.24 5.24 5.27 5.34 7.16 7.08 6.98 6.63 6.51 6.50 6.48 6.40 6.29 6.23 6.15 5.98 5.91 5.90 5.91 5.82 5.79 5.83 5.86 5.82 5.76 5.71 5.66 5.61 5.56 5.52 5.47 5.42 5.38 4.75 4.62 4.58 4.55 4.51 4.48 4.46 4.44 4.41 4.37 4.34 4.31 4.28 4.26 4.24 4.21 4.18 4.16 4.13 4.11 4.09 4.07 4.05 4.03 4.01 3.98 3.97 3.95 3.93 3.91 3.90 3.88 3.87 3.85 3.84 3.81 3.80 3.78 3.77 3.76 3.74 3.71 3.70 3.68 3.68 3.67 3.66 3.65 3.64 3.63 3.62 3.61 3.60 3.66 3.82 3.98 4.09 4.09 4.08 4.08 4.07 4.06 4.05 4.04 4.24 4.49 5.00 5.51 5.50 5.67 6.12 6.62 7.17 6.21 6.17 6.08 6.20 6.29 6.20 6.14 6.21 6.45 6.46 6.07 6.54 6.18 11.95 11.88 2.70 2.69 2.67 2.65 2.65 2.64 2.62 2.66 2.70 576.536523 0.106594 -2.255213 576.536523 0.106594 -2.255213 1134864632.886210 b21 3.110146
FLASER 361 1.40 1.39 1.39 1.38 1.37 1.36 1.36 1.35 1.35 1.34 1.34 1.33 1.33 1.32 1.32 1.30 1.31 1.31 1.32 1.34 1.33 1.30 1.29 1.30 81.91 81.91 81.91 81.91 1.13 81.91 81.91 81.91 81.91 81.91 81.91 81.91 81.91 81.91 81.91 81.91 81.91 81.91 81.91 81.91 81.91 81.91 81.91 81.91 81.91 81.91 81.91 81.91 81.91 81.91 81.91 81.91 81.91 81.91 81.91 81.91 0.78 0.74 0.73 0.72 0.72 0.72 0.71 0.71 0.71 0.71 0.70 0.71 0.72 81.91 81.91 81.91 81.91 81.91 81.91 81.91 81.91 81.91 81.91 81.91 81.91 81.91 81.91 81.91 81.91 81.91 81.91 81.91 81.91 81.91 81.91 81.91 81.91 81.91 81.91 81.91 81.91 81.91 81.91 81.91 81.91 81.91 81.91 81.91 81.91 81.91 81.91 81.91 81.91 1.74 1.72 1.70 1.70 1.71 1.71 1.83 3.34 3.41 3.48 3.56 3.65 3.68 3.68 3.66 3.64 3.62 3.61 3.60 3.59 3.58 3.57 3.55 3.55 3.54 3.53 3.52 3.51 3.51 3.23 2.90 2.90 6.20 6.49 6.80 6.97 6.95 6.96 7.12 6.89 6.87 6.66 6.40 6.37 6.36 6.35 6.36 6.35 6.35 6.37 6.34 6.34 4.37 4.34 4.34 4.34 4.34 4.34 4.34 4.34 4.35 4.35 4.34 4.35 4.35 4.35 4.36 4.36 4.36 4.37 4.37 4.38 4.38 4.39 4.40 4.40 4.41 4.42 4.42 4.43 4.44 4.45 4.46 4.47 4.47 4.48 4.49 4.51 4.52 4.53 4.54 4.56 4.57 4.59 4.60 3.25 3.26 4.65 2.88 2.73 2.78 2.77 2.76 2.77 2.80 2.82 2.82 2.81 2.96 2.98 2.88 2.94 2.96 2.78 2.78 2.79 2.88 5.23 5.24 5.24 5.27 5.34 5.35 7.08 6.98 6.62 6.51 6.50 6.47 6.40 6.31 6.23 6.14 5.98 5.91 5.91 5.91 5.81 5.79 5.83 5.86 5.82 5.76 5.71 5.66 5.61 5.56 5.51 5.46 5.42 5.38 4.75 4.62 4.58 4.55 4.51 4.48 4.46 4.43 4.41 4.38 4.34 4.31 4.28 4.26 4.23 4.21 4.18 4.16 4.13 4.11 4.09 4.07 4.04 4.03 4.00 3.98 3.97 3.95 3.93 3.91 3.90 3.88 3.87 3.85 3.83 3.82 3.80 3.78 3.77 3.76 3.74 3.71 3.69 3.68 3.68 3.67 3.66 3.65 3.64 3.63 3.62 3.61 3.60 3.66 3.82 3.97 4.09 4.09 4.08 4.07 4.07 4.06 4.05 4.04 4.24 4.49 5.01 5.51 5.51 5.66 6.11 6.63 7.17 6.21 6.17 6.08 6.20 6.30 6.20 6.14 6.20 6.45 6.47 6.07 6.54 6.18 11.95 11.88 2.70 2.68 2.67 2.65 2.65 2.64 2.62 2.66 2.70 576.536523 0.106594 -2.255213 576.536523 0.106594 -2.255213 1134864633.095199 b21 3.309651
FLASER 361 1.39 1.39 1.38 1.39 1.37 1.36 1.36 1.35 1.35 1.34 1.33 1.33 1.33 1.32 1.31 1.30 1.31 1.31 1.32 1.34 1.35 1.30 1.28 1.29 81.91 81.91 81.91 81.91 1.14 81.91 81.91 81.91 81.91 81.91 81.91 81.91 81.91 81.91 81.91 81.91 81.91 81.91 81.91 81.91 81.91 81.91 81.91 81.91 81.91 81.91 81.91 81.91 81.91 81.91 81.91 81.91 81.91 81.91 81.91 81.91 0.80 0.73 0.73 0.72 0.71 0.71 0.71 0.71 0.71 0.71 0.71 0.71 0.72 81.91 81.91 81.91 81.91 81.91 81.91 81.91 81.91 81.91 81.91 81.91 81.91 81.91 81.91 81.91 81.91 81.91 81.91 81.91 81.91 81.91 81.91 81.91 81.91 81.91 81.91 81.91 81.91 81.91 81.91 81.91 81.91 81.91 81.91 81.91 81.91 81.91 81.91 81.91 81.91 1.74 1.72 1.70 1.70 1.71 1.71 1.84 3.34 3.41 3.47 3.56 3.65 3.68 3.68 3.66 3.64 3.62 3.61 3.59 3.58 3.58 3.57 3.55 3.55 3.54 3.53 3.52 3.51 3.51 3.22 2.90 2.92 6.21 6.47 6.83 6.97 6.96 6.96 7.12 6.89 6.87 6.66 6.39 6.37 6.36 6.36 6.35 6.35 6.35 6.37 6.34 6.34 4.37 4.34 4.33 4.34 4.34 4.34 4.34 4.34 4.35 4.34 4.34 4.34 4.35 4.35 4.36 4.36 4.36 4.37 4.37 4.38 4.39 4.39 4.39 4.40 4.41 4.42 4.42 4.43 4.44 4.45 4.46 4.47 4.47 4.48 4.50 4.51 4.52 4.53 4.54 4.56 4.57 4.58 4.60 3.25 3.26 4.65 2.88 2.73 2.78 2.77 2.76 2.77 2.80 2.81 2.81 2.82 2.96 2.98 2.88 2.93 2.96 2.78 2.78 2.78 2.88 5.23 5.24 5.24 5.27 5.34 5.43 7.07 6.98 6.62 6.51 6.50 6.48 6.38 6.30 6.23 6.15 5.97 5.90 5.90 5.91 5.82 5.80 5.83 5.86 5.82 5.76 5.70 5.66 5.61 5.56 5.51 5.47 5.42 5.37 4.75 4.62 4.59 4.55 4.51 4.48 4.46 4.44 4.41 4.37 4.34 4.31 4.28 4.26 4.24 4.21 4.18 4.16 4.13 4.11 4.09 4.07 4.05 4.03 4.01 3.98 3.97 3.95 3.93 3.91 3.90 3.87 3.87 3.85 3.83 3.82 3.80 3.78 3.77 3.75 3.74 3.71 3.69 3.69 3.68 3.67 3.66 3.65 3.64 3.63 3.62 3.61 3.60 3.66 3.83 3.98 4.09 4.09 4.09 4.07 4.07 4.06 4.05 4.04 4.24 4.49 5.04 5.51 5.51 5.67 6.12 6.63 7.16 6.21 6.17 6.08 6.20 6.30 6.20 6.14 6.20 6.47 6.47 6.08 6.54 6.18 11.96 11.88 2.70 2.68 2.67 2.65 2.65 2.64 2.62 2.66 2.70 576.536523 0.106594 -2.255213 576.536523 0.106594 -2.255213 1134864633.305200 b21 3.506840
FLASER 361 1.40 1.39 1.39 1.39 1.37 1.36 1.36 1.35 1.35 1.33 1.34 1.33 1.33 1.32 1.31 1.31 1.31 1.31 1.32 1.34 1.33 1.30 1.29 81.91 81.91 81.91 81.91 81.91 1.12 81.91 81.91 81.91 81.91 81.91 81.91 81.91 81.91 81.91 81.91 81.91 81.91 81.91 81.91 81.91 81.91 81.91 81.91 81.91 81.91 81.91 81.91 81.91 81.91 81.91 81.91 81.91 81.91 81.91 81.91 81.91 0.79 0.74 0.73 0.72 0.72 0.71 0.71 0.71 0.71 0.71 0.71 0.71 0.72 81.91 81.91 81.91 81.91 81.91 81.91 81.91 81.91 81.91 81.91 81.91 81.91 81.91 81.91 81.91 81.91 81.91 81.91 81.91 81.91 81.91 81.91 81.91 81.91 81.91 81.91 81.91 81.91 81.91 81.91 81.91 81.91 81.91 81.91 81.91 81.91 81.91 81.91 81.91 81.91 1.74 1.72 1.70 1.70 1.71 1.71 1.84 3.34 3.41 3.47 3.56 3.65 3.68 3.68 3.66 3.64 3.62 3.61 3.59 3.59 3.58 3.57 3.56 3.55 3.54 3.53 3.52 3.52 3.51 3.21 2.90 2.91 6.20 6.47 6.82 6.97 6.96 6.96 7.12 6.89 6.87 6.66 6.39 6.37 6.36 6.36 6.36 6.35 6.35 6.36 6.34 6.34 4.37 4.35 4.35 4.34 4.34 4.34 4.34 4.34 4.35 4.34 4.34 4.35 4.35 4.36 4.36 4.36 4.36 4.37 4.37 4.38 4.38 4.39 4.40 4.40 4.41 4.42 4.42 4.43 4.44 4.45 4.46 4.47 4.47 4.48 4.50 4.51 4.52 4.53 4.55 4.56 4.57 4.58 4.60 3.25 3.26 4.65 2.87 2.72 2.78 2.76 2.75 2.77 2.80 2.82 2.82 2.82 2.95 2.98 2.89 2.94 2.96 2.78 2.78 2.78 2.89 5.23 5.24 5.24 5.27 5.34 5.43 7.08 6.98 6.62 6.51 6.50 6.49 6.40 6.31 6.22 6.15 5.97 5.91 5.90 5.90 5.82 5.79 5.82 5.86 5.82 5.76 5.71 5.66 5.61 5.56 5.51 5.47 5.42 5.37 4.76 4.62 4.58 4.55 4.51 4.48 4.46 4.44 4.41 4.37 4.34 4.31 4.28 4.26 4.23 4.21 4.18 4.16 4.13 4.11 4.09 4.07 4.05 4.03 4.01 3.98 3.97 3.95 3.93 3.91 3.90 3.87 3.87 3.85 3.83 3.82 3.80 3.78 3.77 3.75 3.74 3.71 3.70 3.69 3.68 3.67 3.66 3.65 3.64 3.63 3.62 3.61 3.60 3.67 3.82 3.98 4.09 4.10 4.09 4.08 4.07 4.06 4.05 4.04 4.24 4.49 4.99 5.51 5.50 5.67 6.12 6.63 7.17 6.22 6.18 6.08 6.19 6.29 6.20 6.13 6.21 6.44 6.47 6.07 6.54 6.18 11.95 11.89 2.70 2.69 2.67 2.65 2.65 2.64 2.62 2.66 2.70 576.536523 0.106594 -2.255213 576.536523 0.106594 -2.255213 1134864633.524218 b21 3.721014
FLASER 361 1.39 1.39 1.39 1.38 1.37 1.37 1.35 1.35 1.35 1.33 1.34 1.33 1.32 1.32 1.30 1.30 1.30 1.31 1.31 1.35 1.34 1.30 1.29 81.91 81.91 81.91 81.91 81.91 1.13 81.91 81.91 81.91 81.91 81.91 81.91 81.91 81.91 81.91 81.91 81.91 81.91 81.91 81.91 81.91 81.91 81.91 81.91 81.91 81.91 81.91 81.91 81.91 81.91 81.91 81.91 81.91 81.91 81.91 81.91 81.91 0.79 0.74 0.73 0.72 0.72 0.71 0.71 0.71 0.72 0.71 0.71 0.69 0.72 81.91 81.91 81.91 81.91 81.91 81.91 81.91 81.91 81.91 81.91 81.91 81.91 81.91 81.91 81.91 81.91 81.91 81.91 81.91 81.91 81.91 81.91 81.91 81.91 81.91 81.91 81.91 81.91 81.91 81.91 81.91 81.91 81.91 81.91 81.91 81.91 81.91 81.91 81.91 81.91 1.74 1.72 1.71 1.70 1.71 1.71 1.83 3.35 3.41 3.48 3.56 3.65 3.68 3.68 3.66 3.64 3.62 3.61 3.59 3.58 3.58 3.57 3.55 3.55 3.54 3.53 3.52 3.52 3.51 3.22 2.90 2.92 6.21 6.48 6.83 6.97 6.97 6.96 7.12 6.89 6.87 6.66 6.39 6.37 6.36 6.36 6.35 6.35 6.35 6.36 6.34 6.34 4.37 4.34 4.33 4.33 4.34 4.34 4.34 4.35 4.35 4.35 4.34 4.34 4.35 4.36 4.36 4.36 4.36 4.36 4.37 4.38 4.39 4.39 4.40 4.40 4.41 4.42 4.43 4.43 4.44 4.45 4.46 4.47 4.47 4.48 4.50 4.51 4.52 4.53 4.54 4.56 4.57 4.58 4.60 3.25 3.26 4.65 2.86 2.72 2.78 2.76 2.76 2.77 2.80 2.82 2.81 2.81 2.96 2.98 2.88 2.95 2.95 2.78 2.78 2.79 2.88 5.23 5.25 5.24 5.27 5.34 5.41 7.08 6.98 6.63 6.51 6.50 6.48 6.40 6.30 6.24 6.15 5.98 5.91 5.90 5.91 5.82 5.79 5.82 5.86 5.82 5.76 5.71 5.66 5.61 5.56 5.51 5.47 5.42 5.37 4.75 4.62 4.58 4.55 4.51 4.48 4.46 4.44 4.41 4.37 4.34 4.31 4.28 4.26 4.24 4.21 4.18 4.15 4.13 4.10 4.09 4.07 4.05 4.03 4.01 3.98 3.97 3.95 3.94 3.92 3.90 3.88 3.87 3.85 3.83 3.82 3.80 3.79 3.77 3.76 3.74 3.71 3.70 3.69 3.68 3.67 3.66 3.65 3.64 3.63 3.62 3.61 3.60 3.66 3.82 3.97 4.09 4.10 4.09 4.08 4.07 4.06 4.05 4.05 4.24 4.49 5.04 5.51 5.51 5.67 6.12 6.62 7.17 6.20 6.17 6.07 6.19 6.30 6.20 6.13 6.19 6.44 6.46 6.07 6.54 6.17 11.95 11.89 2.70 2.68 2.67 2.65 2.65 2.64 2.62 2.66 2.70 576.536523 0.106594 -2.255213 576.536523 0.106594 -2.255213 1134864633.734187 b21 3.914330
FLASER 361 1.40 1.39 1.39 1.37 1.37 1.36 1.36 1.35 1.35 1.33 1.34 1.33 1.33 1.32 1.32 1.30 1.30 1.31 1.32 1.34 1.35 1.30 1.28 1.28 81.91 81.91 81.91 81.91 1.14 81.91 81.91 81.91 81.91 81.91 81.91 81.91 81.91 81.91 81.91 81.91 81.91 81.91 81.91 81.91 81.91 81.91 81.91 81.91 81.91 81.91 81.91 81.91 81.91 81.91 81.91 81.91 81.91 81.91 81.91 81.91 0.80 0.73 0.73 0.72 0.71 0.71 0.71 0.71 0.71 0.71 0.71 0.70 0.72 81.91 81.91 81.91 81.91 81.91 81.91 81.91 81.91 81.91 81.91 81.91 81.91 81.91 81.91 81.91 81.91 81.91 81.91 81.91 81.91 81.91 81.91 81.91 81.91 81.91 81.91 81.91 81.91 81.91 81.91 81.91 81.91 81.91 81.91 81.91 81.91 81.91 81.91 81.91 81.91 1.75 1.72 1.71 1.70 1.71 1.71 1.83 3.34 3.41 3.48 3.55 3.65 3.68 3.68 3.65 3.64 3.62 3.61 3.60 3.58 3.58 3.57 3.56 3.55 3.54 3.53 3.52 3.52 3.51 3.23 2.90 2.92 6.21 6.48 6.82 6.97 6.96 6.96 7.12 6.89 6.87 6.65 6.39 6.37 6.36 6.36 6.36 6.35 6.35 6.36 6.34 6.34 4.37 4.34 4.35 4.34 4.34 4.34 4.34 4.35 4.35 4.35 4.34 4.35 4.35 4.35 4.36 4.36 4.36 4.37 4.37 4.38 4.39 4.39 4.40 4.40 4.41 4.42 4.43 4.43 4.44 4.45 4.46 4.47 4.47 4.48 4.49 4.51 4.52 4.53 4.54 4.56 4.57 4.59 4.60 3.25 3.26 4.65 2.87 2.73 2.78 2.77 2.76 2.77 2.80 2.81 2.83 2.81 2.96 2.98 2.87 2.93 2.96 2.78 2.78 2.78 2.89 5.23 5.24 5.24 5.27 5.34 7.16 7.08 6.98 6.63 6.51 6.50 6.49 6.39 6.30 6.23 6.14 5.98 5.90 5.90 5.91 5.82 5.79 5.83 5.86 5.82 5.76 5.71 5.66 5.61 5.56 5.51 5.47 5.42 5.38 4.75 4.62 4.59 4.55 4.51 4.48 4.46 4.44 4.41 4.37 4.34 4.31 4.28 4.26 4.23 4.21 4.19 4.16 4.13 4.11 4.09 4.07 4.05 4.03 4.01 3.98 3.97 3.95 3.93 3.92 3.89 3.87 3.87 3.85 3.83 3.82 3.80 3.78 3.77 3.76 3.74 3.71 3.69 3.68 3.68 3.67 3.66 3.65 3.64 3.63 3.62 3.62 3.60 3.67 3.82 3.98 4.09 4.10 4.09 4.08 4.07 4.06 4.05 4.05 4.24 4.49 5.04 5.50 5.50 5.66 6.12 6.63 7.17 6.21 6.17 6.09 6.20 6.30 6.20 6.14 6.21 6.45 6.47 6.07 6.54 6.18 11.94 11.90 2.70 2.68 2.67 2.65 2.65 2.64 2.62 2.66 2.70 576.536523 0.106594 -2.255213 576.536523 0.106594 -2.255213 1134864633.944184 b21 4.124538
FLASER 361 1.40 1.39 1.38 1.38 1.37 1.37 1.36 1.35 1.35 1.34 1.34 1.33 1.33 1.32 1.32 1.30 1.30 1.31 1.32 1.34 1.35 1.31 1.31 1.27 81.91 81.91 81.91 81.91 1.12 81.91 81.91 81.91 81.91 81.91 81.91 81.91 81.91 81.91 81.91 81.91 81.91 81.91 81.91 81.91 81.91 81.91 81.91 81.91 81.91 81.91 81.91 81.91 81.91 81.91 81.91 81.91 81.91 81.91 81.91 81.91 0.80 0.74 0.73 0.72 0.72 0.72 0.71 0.71 0.71 0.71 0.71 0.71 0.71 81.91 81.91 81.91 81.91 81.91 81.91 81.91 81.91 81.91 81.91 81.91 81.91 81.91 81.91 81.91 81.91 81.91 81.91 81.91 81.91 81.91 81.91 81.91 81.91 81.91 81.91 81.91 81.91 81.91 81.91 81.91 81.91 81.91 81.91 81.91 81.91 81.91 81.91 81.91 81.91 1.74 1.72 1.70 1.70 1.71 1.71 1.83 3.34 3.41 3.47 3.56 3.65 3.68 3.68 3.66 3.64 3.62 3.61 3.60 3.59 3.58 3.57 3.56 3.55 3.54 3.53 3.52 3.52 3.51 3.20 2.90 2.91 6.21 6.47 6.80 6.96 6.96 6.96 7.12 6.89 6.87 6.66 6.39 6.36 6.36 6.36 6.36 6.35 6.35 6.36 6.34 6.34 4.37 4.34 4.34 4.35 4.34 4.34 4.34 4.34 4.35 4.35 4.34 4.35 4.35 4.36 4.36 4.36 4.36 4.36 4.37 4.38 4.38 4.39 4.39 4.40 4.41 4.42 4.43 4.43 4.44 4.45 4.46 4.47 4.47 4.48 4.50 4.51 4.52 4.53 4.54 4.56 4.57 4.59 4.60 3.25 3.26 4.64 2.87 2.72 2.78 2.76 2.76 2.77 2.80 2.82 2.83 2.82 2.96 2.98 2.87 2.94 2.96 2.79 2.78 2.78 2.89 5.22 5.25 5.24 5.27 5.34 5.34 7.08 6.98 6.62 6.51 6.50 6.48 6.39 6.29 6.23 6.16 5.98 5.91 5.90 5.91 5.81 5.79 5.83 5.86 5.82 5.76 5.71 5.66 5.61 5.56 5.52 5.47 5.42 5.37 4.76 4.62 4.59 4.55 4.51 4.48 4.46 4.43 4.41 4.37 4.34 4.31 4.28 4.27 4.23 4.21 4.18 4.16 4.13 4.11 4.09 4.08 4.04 4.03 4.01 3.99 3.97 3.95 3.93 3.91 3.90 3.88 3.87 3.85 3.83 3.82 3.80 3.79 3.77 3.76 3.74 3.71 3.69 3.68 3.68 3.67 3.67 3.65 3.64 3.63 3.62 3.61 3.60 3.66 3.82 3.97 4.09 4.09 4.09 4.08 4.07 4.06 4.05 4.05 4.24 4.49 5.05 5.51 5.50 5.67 6.11 6.61 7.17 6.21 6.17 6.08 6.20 6.29 6.20 6.14 6.20 6.45 6.46 6.08 6.54 6.18 11.94 11.90 2.70 2.68 2.67 2.65 2.65 2.64 2.62 2.66 2.70 576.536523 0.106594 -2.255213 576.536523 0.106594 -2.255213 1134864634.165185 b21 4.326196
FLASER 361 1.40 1.39 1.39 1.39 1.37 1.36 1.35 1.35 1.35 1.34 1.34 1.33 1.33 1.32 1.31 1.30 1.30 1.31 1.32 1.34 1.33 1.29 1.31 1.29 81.91 81.91 81.91 81.91 1.15 81.91 81.91 81.91 81.91 81.91 81.91 81.91 81.91 81.91 81.91 81.91 81.91 81.91 81.91 81.91 81.91 81.91 81.91 81.91 81.91 81.91 81.91 81.91 81.91 81.91 81.91 81.91 81.91 81.91 81.91 81.91 0.79 0.74 0.74 0.72 0.72 0.71 0.71 0.71 0.72 0.71 0.71 0.71 0.71 81.91 81.91 81.91 81.91 81.91 81.91 81.91 81.91 81.91 81.91 81.91 81.91 81.91 81.91 81.91 81.91 81.91 81.91 81.91 81.91 81.91 81.91 81.91 81.91 81.91 81.91 81.91 81.91 81.91 81.91 81.91 81.91 81.91 81.91 81.91 81.91 81.91 81.91 81.91 81.91 1.75 1.72 1.70 1.70 1.71 1.71 1.83 3.34 3.41 3.48 3.56 3.65 3.68 3.68 3.66 3.64 3.62 3.61 3.59 3.58 3.58 3.57 3.56 3.55 3.54 3.53 3.52 3.52 3.51 3.23 2.90 2.92 6.21 6.46 6.81 6.97 6.96 6.96 7.12 6.89 6.87 6.65 6.39 6.37 6.36 6.36 6.36 6.35 6.35 6.37 6.34 6.34 4.38 4.34 4.34 4.34 4.34 4.34 4.34 4.34 4.34 4.34 4.34 4.35 4.35 4.35 4.36 4.35 4.36 4.37 4.37 4.38 4.38 4.39 4.39 4.40 4.41 4.42 4.42 4.43 4.44 4.45 4.46 4.47 4.47 4.48 4.49 4.51 4.52 4.53 4.54 4.56 4.57 4.58 4.59 3.25 3.26 4.65 2.87 2.73 2.78 2.76 2.76 2.76 2.81 2.81 2.82 2.81 2.96 2.98 2.88 2.94 2.96 2.78 2.78 2.78 2.89 5.23 5.24 5.24 5.27 5.34 7.16 7.08 6.98 6.63 6.51 6.50 6.49 6.40 6.31 6.23 6.16 5.98 5.91 5.90 5.91 5.82 5.79 5.83 5.86 5.82 5.76 5.71 5.66 5.61 5.56 5.51 5.47 5.42 5.37 4.75 4.62 4.58 4.55 4.51 4.48 4.46 4.44 4.41 4.37 4.34 4.31 4.28 4.26 4.23 4.21 4.18 4.16 4.13 4.11 4.09 4.07 4.04 4.03 4.01 3.98 3.97 3.95 3.93 3.91 3.90 3.88 3.87 3.85 3.83 3.82 3.80 3.78 3.77 3.76 3.74 3.71 3.69 3.68 3.68 3.67 3.66 3.65 3.64 3.63 3.62 3.61 3.60 3.66 3.82 3.97 4.09 4.09 4.09 4.08 4.07 4.06 4.05 4.05 4.24 4.49 5.10 5.51 5.50 5.67 6.12 6.63 7.17 6.20 6.17 6.09 6.20 6.30 6.20 6.14 6.21 6.45 6.47 6.07 6.54 6.18 11.95 11.88 2.70 2.68 2.67 2.65 2.65 2.64 2.62 2.66 2.71 576.536523 0.106594 -2.255213 576.536523 0.106594 -2.255213 1134864634.375186 b21 4.525383
FLASER 361 1.40 1.39 1.39 1.38 1.37 1.36 1.36 1.35 1.35 1.34 1.34 1.33 1.33 1.32 1.32 1.31 1.31 1.32 1.32 1.34 1.33 1.30 1.28 1.29 81.91 81.91 81.91 81.91 1.10 81.91 81.91 81.91 81.91 81.91 81.91 81.91 81.91 81.91 81.91 81.91 81.91 81.91 81.91 81.91 81.91 81.91 81.91 81.91 81.91 81.91 81.91 81.91 81.91 81.91 81.91 81.91 81.91 81.91 81.91 81.91 0.79 0.74 0.73 0.72 0.72 0.72 0.71 0.71 0.71 0.71 0.71 0.71 0.72 81.91 81.91 81.91 81.91 81.91 81.91 81.91 81.91 81.91 81.91 81.91 81.91 81.91 81.91 81.91 81.91 81.91 81.91 81.91 81.91 81.91 81.91 81.91 81.91 81.91 81.91 81.91 81.91 81.91 81.91 81.91 81.91 81.91 81.91 81.91 81.91 81.91 81.91 81.91 81.91 1.75 1.72 1.70 1.70 1.71 1.71 1.83 3.34 3.41 3.47 3.56 3.65 3.68 3.68 3.66 3.64 3.62 3.61 3.59 3.58 3.58 3.57 3.56 3.55 3.54 3.53 3.52 3.51 3.51 3.20 2.90 2.92 6.21 6.47 6.82 6.97 6.95 6.96 7.12 6.89 6.87 6.66 6.39 6.37 6.36 6.36 6.36 6.35 6.35 6.36 6.34 6.34 4.37 4.35 4.34 4.33 4.34 4.34 4.34 4.34 4.35 4.34 4.34 4.35 4.35 4.36 4.36 4.35 4.36 4.36 4.37 4.38 4.38 4.39 4.40 4.40 4.41 4.42 4.42 4.44 4.44 4.45 4.46 4.47 4.47 4.48 4.49 4.51 4.52 4.53 4.54 4.56 4.57 4.58 4.60 3.26 3.26 4.65 2.88 2.74 2.78 2.76 2.75 2.77 2.80 2.81 2.82 2.82 2.96 2.97 2.89 2.94 2.96 2.79 2.78 2.78 2.89 5.23 5.25 5.24 5.27 5.34 5.37 7.08 6.98 6.62 6.51 6.50 6.48 6.39 6.31 6.23 6.15 5.98 5.91 5.90 5.91 5.82 5.79 5.83 5.86 5.82 5.76 5.71 5.66 5.61 5.56 5.52 5.47 5.42 5.38 4.76 4.62 4.59 4.55 4.51 4.49 4.46 4.44 4.41 4.37 4.34 4.31 4.28 4.26 4.23 4.21 4.18 4.16 4.13 4.11 4.09 4.07 4.05 4.03 4.01 3.98 3.97 3.95 3.93 3.91 3.90 3.87 3.87 3.85 3.83 3.82 3.80 3.78 3.77 3.75 3.74 3.71 3.69 3.68 3.68 3.67 3.66 3.65 3.64 3.63 3.62 3.61 3.60 3.67 3.82 3.97 4.09 4.10 4.09 4.08 4.07 4.06 4.05 4.05 4.24 4.49 5.01 5.51 5.50 5.67 6.12 6.63 7.17 6.21 6.17 6.08 6.20 6.30 6.20 6.14 6.20 6.46 6.47 6.07 6.55 6.18 11.94 11.90 2.70 2.68 2.67 2.65 2.66 2.64 2.62 2.66 2.70 576.536523 0.106594 -2.255213 576.536523 0.106594 -2.255213 1134864634.585186 b21 4.731949
FLASER 361 1.40 1.40 1.39 1.38 1.37 1.37 1.36 1.35 1.35 1.34 1.33 1.33 1.33 1.33 1.32 1.32 1.31 1.31 1.32 1.34 1.33 1.29 1.29 1.31 81.91 81.91 81.91 81.91 1.14 81.91 81.91 81.91 81.91 81.91 81.91 81.91 81.91 81.91 81.91 81.91 81.91 81.91 81.91 81.91 81.91 81.91 81.91 81.91 81.91 81.91 81.91 81.91 81.91 81.91 81.91 81.91 81.91 81.91 81.91 81.91 0.79 0.75 0.73 0.72 0.72 0.72 0.71 0.71 0.71 0.71 0.71 0.70 0.71 81.91 81.91 81.91 81.91 81.91 81.91 81.91 81.91 81.91 81.91 81.91 81.91 81.91 81.91 81.91 81.91 81.91 81.91 81.91 81.91 81.91 81.91 81.91 81.91 81.91 81.91 81.91 81.91 81.91 81.91 81.91 81.91 81.91 81.91 81.91 81.91 81.91 81.91 81.91 81.91 1.74 1.72 1.70 1.70 1.71 1.71 1.84 3.35 3.41 3.48 3.56 3.65 3.68 3.69 3.66 3.64 3.62 3.61 3.59 3.59 3.58 3.57 3.55 3.55 3.54 3.53 3.52 3.52 3.51 3.23 2.90 2.91 6.21 6.47 6.83 6.97 6.97 6.97 7.12 6.89 6.87 6.65 6.40 6.37 6.37 6.36 6.36 6.35 6.35 6.36 6.34 6.34 4.37 4.35 4.35 4.34 4.34 4.34 4.34 4.34 4.34 4.34 4.34 4.34 4.35 4.35 4.36 4.35 4.36 4.37 4.37 4.38 4.39 4.39 4.40 4.40 4.41 4.41 4.43 4.43 4.44 4.45 4.46 4.47 4.48 4.49 4.50 4.51 4.52 4.53 4.54 4.56 4.57 4.59 4.60 3.25 3.27 4.65 2.86 2.73 2.78 2.76 2.76 2.77 2.80 2.82 2.81 2.82 2.95 2.98 2.88 2.93 2.97 2.78 2.78 2.79 2.89 5.23 5.25 5.24 5.27 5.34 5.34 7.08 6.99 6.62 6.52 6.51 6.49 6.40 6.30 6.23 6.16 5.98 5.91 5.90 5.91 5.82 5.80 5.83 5.86 5.82 5.76 5.71 5.66 5.61 5.56 5.51 5.47 5.42 5.38 4.75 4.62 4.59 4.55 4.51 4.49 4.47 4.44 4.41 4.37 4.34 4.31 4.29 4.26 4.23 4.21 4.18 4.16 4.13 4.11 4.09 4.07 4.05 4.03 4.00 3.99 3.97 3.95 3.93 3.91 3.89 3.88 3.87 3.85 3.83 3.81 3.80 3.78 3.77 3.76 3.74 3.71 3.70 3.69 3.69 3.67 3.66 3.65 3.64 3.63 3.62 3.61 3.60 3.66 3.83 3.98 4.09 4.10 4.09 4.08 4.07 4.06 4.05 4.05 4.25 4.49 5.04 5.50 5.51 5.67 6.12 6.63 7.17 6.21 6.17 6.08 6.20 6.29 6.21 6.13 6.21 6.46 6.48 6.06 6.54 6.20 11.94 11.88 2.70 2.69 2.67 2.65 2.65 2.64 2.62 2.66 2.70 576.536523 0.106594 -2.255213 576.536523 0.106594 -2.255213 1134864634.804189 b21 5.033700
FLASER 361 1.40 1.40 1.39 1.38 1.37 1.36 1.35 1.35 1.35 1.34 1.34 1.33 1.33 1.32 1.32 1.30 1.30 1.31 1.32 1.34 1.34 1.31 1.29 1.29 81.91 81.91 81.91 81.91 1.12 81.91 81.91 81.91 81.91 81.91 81.91 81.91 81.91 81.91 81.91 81.91 81.91 81.91 81.91 81.91 81.91 81.91 81.91 81.91 81.91 81.91 81.91 81.91 81.91 81.91 81.91 81.91 81.91 81.91 81.91 81.91 0.79 0.75 0.73 0.72 0.72 0.71 0.71 0.71 0.71 0.71 0.71 0.71 0.71 81.91 81.91 81.91 81.91 81.91 81.91 81.91 81.91 81.91 81.91 81.91 81.91 81.91 81.91 81.91 81.91 81.91 81.91 81.91 81.91 81.91 81.91 81.91 81.91 81.91 81.91 81.91 81.91 81.91 81.91 81.91 81.91 81.91 81.91 81.91 81.91 81.91 81.91 81.91 81.91 1.74 1.72 1.70 1.70 1.72 1.71 1.84 3.35 3.41 3.48 3.55 3.64 3.68 3.69 3.66 3.64 3.62 3.61 3.59 3.59 3.58 3.57 3.56 3.55 3.54 3.53 3.52 3.52 3.51 3.23 2.90 2.92 6.21 6.48 6.80 6.96 6.97 6.97 7.12 6.89 6.87 6.65 6.39 6.37 6.36 6.36 6.36 6.35 6.35 6.36 6.34 6.34 4.37 4.35 4.35 4.34 4.34 4.34 4.34 4.34 4.34 4.34 4.34 4.35 4.35 4.36 4.36 4.36 4.36 4.37 4.37 4.38 4.39 4.39 4.39 4.40 4.41 4.42 4.43 4.43 4.44 4.45 4.46 4.47 4.48 4.49 4.50 4.51 4.52 4.53 4.54 4.56 4.57 4.59 4.60 3.25 3.27 4.65 2.88 2.72 2.78 2.77 2.75 2.77 2.80 2.82 2.81 2.81 2.95 2.98 2.89 2.94 2.96 2.79 2.78 2.78 2.89 5.23 5.25 5.24 5.27 5.34 7.17 7.08 6.99 6.63 6.52 6.51 6.48 6.40 6.30 6.24 6.15 5.98 5.91 5.90 5.91 5.82 5.79 5.83 5.86 5.82 5.76 5.71 5.66 5.61 5.56 5.51 5.47 5.42 5.38 4.76 4.62 4.59 4.54 4.52 4.48 4.47 4.44 4.41 4.37 4.34 4.31 4.29 4.26 4.23 4.21 4.18 4.16 4.13 4.11 4.09 4.08 4.05 4.03 4.01 3.99 3.98 3.95 3.93 3.92 3.90 3.88 3.87 3.85 3.83 3.82 3.80 3.78 3.77 3.76 3.74 3.71 3.70 3.69 3.68 3.67 3.66 3.65 3.64 3.63 3.62 3.61 3.60 3.66 3.83 3.97 4.10 4.09 4.09 4.08 4.06 4.06 4.05 4.05 4.25 4.49 5.01 5.51 5.50 5.66 6.12 6.63 7.17 6.21 6.17 6.08 6.20 6.29 6.20 6.14 6.20 6.46 6.49 6.07 6.54 6.18 11.94 11.89 2.71 2.68 2.67 2.65 2.66 2.64 2.62 2.66 2.70 576.536523 0.106594 -2.255213 576.536523 0.106594 -2.255213 1134864635.014189 b21 5.236168
FLASER 361 1.40 1.39 1.39 1.38 1.37 1.37 1.36 1.35 1.35 1.34 1.34 1.33 1.33 1.32 1.31 1.30 1.30 1.32 1.32 1.35 1.32 1.33 1.26 1.29 81.91 81.91 81.91 81.91 1.14 81.91 81.91 81.91 81.91 81.91 81.91 81.91 81.91 81.91 81.91 81.91 81.91 81.91 81.91 81.91 81.91 81.91 81.91 81.91 81.91 81.91 81.91 81.91 81.91 81.91 81.91 81.91 81.91 81.91 81.91 81.91 0.78 0.74 0.73 0.72 0.72 0.72 0.71 0.71 0.71 0.71 0.71 0.70 0.72 81.91 81.91 81.91 81.91 81.91 81.91 81.91 81.91 81.91 81.91 81.91 81.91 81.91 81.91 81.91 81.91 81.91 81.91 81.91 81.91 81.91 81.91 81.91 81.91 81.91 81.91 81.91 81.91 81.91 81.91 81.91 81.91 81.91 81.91 81.91 81.91 81.91 81.91 81.91 81.91 1.74 1.72 1.71 1.70 1.71 1.71 1.83 3.34 3.41 3.48 3.56 3.65 3.68 3.69 3.66 3.64 3.62 3.62 3.59 3.59 3.58 3.57 3.56 3.55 3.54 3.53 3.52 3.52 3.51 3.24 2.90 2.92 6.20 6.48 6.80 6.97 6.97 6.97 7.12 6.89 6.87 6.66 6.39 6.37 6.36 6.36 6.36 6.35 6.35 6.36 6.34 6.34 4.37 4.35 4.35 4.34 4.34 4.34 4.34 4.34 4.35 4.35 4.34 4.35 4.35 4.36 4.36 4.36 4.36 4.37 4.37 4.38 4.38 4.39 4.40 4.40 4.41 4.42 4.42 4.43 4.44 4.45 4.46 4.47 4.48 4.49 4.50 4.51 4.52 4.53 4.54 4.56 4.57 4.58 4.60 3.25 3.27 4.65 2.87 2.73 2.77 2.76 2.75 2.77 2.80 2.82 2.82 2.81 2.95 2.98 2.88 2.92 2.96 2.78 2.78 2.78 2.89 5.23 5.25 5.24 5.27 5.34 5.37 7.08 6.99 6.62 6.52 6.51 6.49 6.40 6.30 6.24 6.14 5.98 5.91 5.90 5.91 5.82 5.79 5.83 5.86 5.82 5.76 5.71 5.66 5.61 5.56 5.51 5.47 5.42 5.38 4.75 4.62 4.59 4.55 4.51 4.48 4.47 4.44 4.41 4.37 4.34 4.31 4.30 4.26 4.24 4.21 4.18 4.16 4.13 4.11 4.10 4.07 4.05 4.03 4.00 3.99 3.98 3.95 3.93 3.91 3.90 3.88 3.87 3.85 3.83 3.82 3.80 3.78 3.77 3.75 3.74 3.71 3.69 3.69 3.68 3.67 3.66 3.65 3.64 3.63 3.62 3.61 3.61 3.66 3.83 3.97 4.09 4.09 4.09 4.08 4.07 4.06 4.05 4.04 4.25 4.49 4.99 5.51 5.51 5.67 6.12 6.63 7.17 6.21 6.17 6.09 6.20 6.30 6.21 6.14 6.21 6.45 6.47 6.08 6.55 6.18 11.95 11.90 2.71 2.69 2.67 2.65 2.65 2.64 2.62 2.66 2.70 576.536523 0.106594 -2.255213 576.536523 0.106594 -2.255213 1134864635.224184 b21 5.436295
FLASER 361 1.40 1.40 1.39 1.39 1.37 1.36 1.36 1.35 1.35 1.34 1.33 1.33 1.33 1.32 1.32 1.30 1.31 1.31 1.31 1.34 1.35 1.30 1.30 1.30 81.91 81.91 81.91 81.91 1.12 81.91 81.91 81.91 81.91 81.91 81.91 81.91 81.91 81.91 81.91 81.91 81.91 81.91 81.91 81.91 81.91 81.91 81.91 81.91 81.91 81.91 81.91 81.91 81.91 81.91 81.91 81.91 81.91 81.91 81.91 81.91 0.79 0.76 0.74 0.72 0.72 0.72 0.71 0.71 0.71 0.71 0.70 0.72 0.71 81.91 81.91 81.91 81.91 81.91 81.91 81.91 81.91 81.91 81.91 81.91 81.91 81.91 81.91 81.91 81.91 81.91 81.91 81.91 81.91 81.91 81.91 81.91 81.91 81.91 81.91 81.91 81.91 81.91 81.91 81.91 81.91 81.91 81.91 81.91 81.91 81.91 81.91 81.91 81.91 1.74 1.72 1.71 1.70 1.72 1.71 1.84 3.34 3.41 3.48 3.56 3.65 3.68 3.69 3.66 3.64 3.62 3.61 3.60 3.59 3.58 3.57 3.55 3.55 3.54 3.53 3.52 3.51 3.51 3.23 2.90 2.92 6.21 6.48 6.82 6.97 6.97 6.97 7.12 6.89 6.87 6.66 6.39 6.37 6.36 6.36 6.36 6.35 6.35 6.36 6.34 6.34 4.37 4.34 4.35 4.34 4.34 4.34 4.34 4.34 4.34 4.35 4.34 4.34 4.35 4.35 4.36 4.35 4.36 4.37 4.37 4.38 4.38 4.39 4.40 4.40 4.41 4.42 4.42 4.43 4.44 4.45 4.46 4.47 4.48 4.49 4.50 4.51 4.52 4.53 4.54 4.56 4.57 4.58 4.60 3.25 3.27 4.64 2.88 2.74 2.78 2.77 2.76 2.78 2.80 2.82 2.83 2.82 2.95 2.98 2.90 2.94 2.96 2.78 2.78 2.79 2.90 5.23 5.25 5.24 5.27 5.34 7.17 7.08 6.99 6.62 6.52 6.51 6.49 6.39 6.30 6.24 6.16 5.98 5.91 5.90 5.90 5.82 5.79 5.84 5.86 5.82 5.76 5.71 5.66 5.61 5.56 5.51 5.47 5.42 5.38 4.76 4.62 4.58 4.55 4.51 4.48 4.47 4.44 4.41 4.37 4.34 4.31 4.29 4.26 4.23 4.21 4.19 4.16 4.14 4.11 4.10 4.07 4.05 4.03 4.01 3.99 3.97 3.95 3.93 3.91 3.90 3.88 3.87 3.85 3.83 3.82 3.80 3.78 3.77 3.75 3.74 3.71 3.70 3.69 3.68 3.67 3.66 3.65 3.64 3.63 3.62 3.61 3.60 3.67 3.83 3.98 4.09 4.09 4.09 4.08 4.07 4.06 4.05 4.04 4.25 4.49 5.01 5.51 5.51 5.69 6.12 6.63 7.17 6.21 6.17 6.08 6.20 6.30 6.20 6.15 6.20 6.45 6.49 6.07 6.54 6.18 11.95 11.89 2.71 2.69 2.67 2.65 2.65 2.64 2.62 2.66 2.70 576.536523 0.106594 -2.255213 576.536523 0.106594 -2.255213 1134864635.444181 b21 5.637340
FLASER 361 1.40 1.39 1.39 1.39 1.37 1.36 1.35 1.35 1.35 1.33 1.34 1.33 1.33 1.32 1.31 1.32 1.30 1.32 1.32 1.34 1.33 1.32 1.27 1.29 81.91 81.91 81.91 81.91 1.12 81.91 81.91 81.91 81.91 81.91 81.91 81.91 81.91 81.91 81.91 81.91 81.91 81.91 81.91 81.91 81.91 81.91 81.91 81.91 81.91 81.91 81.91 81.91 81.91 81.91 81.91 81.91 81.91 81.91 81.91 81.91 0.79 0.75 0.73 0.72 0.72 0.71 0.71 0.71 0.71 0.71 0.71 0.71 0.72 81.91 81.91 81.91 81.91 81.91 81.91 81.91 81.91 81.91 81.91 81.91 81.91 81.91 81.91 81.91 81.91 81.91 81.91 81.91 81.91 81.91 81.91 81.91 81.91 81.91 81.91 81.91 81.91 81.91 81.91 81.91 81.91 81.91 81.91 81.91 81.91 81.91 81.91 81.91 81.91 1.74 1.72 1.70 1.70 1.72 1.71 1.84 3.34 3.41 3.47 3.55 3.65 3.68 3.69 3.66 3.64 3.62 3.61 3.59 3.59 3.58 3.57 3.56 3.55 3.53 3.53 3.52 3.51 3.51 3.22 2.90 2.92 6.21 6.48 6.82 6.96 6.97 6.97 7.12 6.89 6.87 6.65 6.39 6.37 6.36 6.36 6.35 6.35 6.35 6.36 6.34 6.34 4.37 4.35 4.34 4.34 4.34 4.34 4.34 4.34 4.35 4.35 4.34 4.35 4.35 4.35 4.36 4.36 4.36 4.37 4.38 4.38 4.39 4.39 4.40 4.40 4.41 4.42 4.43 4.43 4.44 4.45 4.46 4.47 4.48 4.49 4.50 4.51 4.52 4.53 4.54 4.55 4.57 4.58 4.60 3.25 3.27 4.65 2.86 2.74 2.79 2.77 2.77 2.77 2.80 2.81 2.83 2.83 2.95 2.98 2.90 2.94 2.96 2.78 2.78 2.78 2.88 5.23 5.25 5.24 5.28 5.34 7.17 7.08 6.99 6.63 6.52 6.51 6.49 6.40 6.31 6.23 6.16 5.98 5.90 5.90 5.91 5.82 5.80 5.84 5.86 5.82 5.76 5.71 5.66 5.61 5.56 5.51 5.47 5.42 5.38 4.75 4.62 4.58 4.55 4.51 4.48 4.47 4.44 4.41 4.37 4.34 4.31 4.29 4.26 4.23 4.21 4.18 4.16 4.13 4.11 4.09 4.07 4.05 4.03 4.01 3.99 3.97 3.95 3.93 3.91 3.90 3.88 3.87 3.85 3.83 3.82 3.80 3.78 3.77 3.75 3.74 3.71 3.69 3.69 3.68 3.67 3.66 3.65 3.64 3.63 3.62 3.61 3.60 3.66 3.83 3.97 4.09 4.09 4.09 4.08 4.07 4.06 4.05 4.05 4.25 4.49 5.06 5.51 5.51 5.69 6.12 6.62 7.17 6.21 6.18 6.08 6.20 6.29 6.20 6.15 6.20 6.44 6.48 6.08 6.54 6.19 11.95 11.90 2.71 2.68 2.67 2.65 2.65 2.64 2.62 2.66 2.70 576.536523 0.106594 -2.255213 576.536523 0.106594 -2.255213 1134864635.655185 b21 5.839262
FLASER 361 1.40 1.39 1.38 1.38 1.37 1.36 1.37 1.35 1.35 1.34 1.33 1.33 1.33 1.32 1.32 1.30 1.30 1.31 1.32 1.34 1.35 1.32 1.29 1.29 81.91 81.91 81.91 81.91 1.14 81.91 81.91 81.91 81.91 81.91 81.91 81.91 81.91 81.91 81.91 81.91 81.91 81.91 81.91 81.91 81.91 81.91 81.91 81.91 81.91 81.91 81.91 81.91 81.91 81.91 81.91 81.91 81.91 81.91 81.91 81.91 0.79 0.74 0.73 0.72 0.72 0.71 0.71 0.71 0.71 0.71 0.71 0.70 0.71 81.91 81.91 81.91 81.91 81.91 81.91 81.91 81.91 81.91 81.91 81.91 81.91 81.91 81.91 81.91 81.91 81.91 81.91 81.91 81.91 81.91 81.91 81.91 81.91 81.91 81.91 81.91 81.91 81.91 81.91 81.91 81.91 81.91 81.91 81.91 81.91 81.91 81.91 81.91 81.91 1.74 1.72 1.70 1.70 1.72 1.71 1.84 3.34 3.41 3.48 3.56 3.65 3.68 3.68 3.66 3.64 3.62 3.61 3.59 3.59 3.58 3.57 3.55 3.55 3.54 3.53 3.52 3.52 3.51 3.20 2.90 2.92 6.20 6.47 6.83 6.97 6.96 6.96 7.12 6.89 6.87 6.65 6.40 6.37 6.36 6.36 6.36 6.35 6.35 6.36 6.34 6.34 4.38 4.33 4.34 4.35 4.34 4.34 4.34 4.34 4.35 4.34 4.34 4.35 4.35 4.35 4.36 4.36 4.36 4.37 4.37 4.38 4.38 4.40 4.40 4.40 4.41 4.42 4.42 4.43 4.44 4.45 4.46 4.47 4.47 4.48 4.49 4.51 4.52 4.53 4.54 4.56 4.57 4.58 4.60 3.25 3.26 4.64 2.87 2.74 2.79 2.77 2.76 2.77 2.81 2.82 2.83 2.83 2.96 2.98 2.89 2.94 2.96 2.78 2.78 2.78 2.89 5.23 5.25 5.24 5.27 5.34 5.39 7.08 6.98 6.62 6.51 6.50 6.48 6.40 6.31 6.24 6.16 5.98 5.91 5.90 5.91 5.81 5.79 5.82 5.86 5.82 5.76 5.71 5.66 5.61 5.56 5.51 5.47 5.42 5.37 4.75 4.62 4.58 4.55 4.51 4.49 4.46 4.44 4.41 4.37 4.34 4.31 4.28 4.26 4.23 4.21 4.18 4.16 4.13 4.11 4.09 4.07 4.05 4.03 4.01 3.98 3.97 3.95 3.93 3.91 3.90 3.88 3.87 3.85 3.83 3.81 3.80 3.78 3.77 3.76 3.74 3.71 3.70 3.68 3.68 3.67 3.66 3.65 3.64 3.63 3.62 3.61 3.60 3.67 3.82 3.98 4.09 4.10 4.08 4.08 4.07 4.06 4.05 4.05 4.24 4.49 5.01 5.50 5.51 5.69 6.12 6.63 7.18 6.21 6.17 6.08 6.20 6.30 6.20 6.14 6.20 6.46 6.48 6.08 6.54 6.17 11.96 11.89 2.70 2.69 2.67 2.64 2.65 2.64 2.62 2.66 2.70 576.536523 0.106594 -2.255213 576.536523 0.106594 -2.255213 1134864635.865185 b21 6.041417
FLASER 361 1.40 1.39 1.39 1.37 1.37 1.36 1.37 1.35 1.35 1.33 1.33 1.33 1.33 1.32 1.32 1.30 1.30 1.32 1.32 1.34 1.35 1.32 1.28 1.28 81.91 81.91 81.91 81.91 1.14 81.91 81.91 81.91 81.91 81.91 81.91 81.91 81.91 81.91 81.91 81.91 81.91 81.91 81.91 81.91 81.91 81.91 81.91 81.91 81.91 81.91 81.91 81.91 81.91 81.91 81.91 81.91 81.91 81.91 81.91 81.91 0.80 0.74 0.73 0.72 0.72 0.71 0.71 0.71 0.71 0.71 0.71 0.71 0.72 81.91 81.91 81.91 81.91 81.91 81.91 81.91 81.91 81.91 81.91 81.91 81.91 81.91 81.91 81.91 81.91 81.91 81.91 81.91 81.91 81.91 81.91 81.91 81.91 81.91 81.91 81.91 81.91 81.91 81.91 81.91 81.91 81.91 81.91 81.91 81.91 81.91 81.91 81.91 81.91 1.74 1.72 1.70 1.70 1.72 1.71 1.84 3.34 3.41 3.48 3.55 3.64 3.68 3.68 3.66 3.64 3.62 3.61 3.59 3.58 3.58 3.57 3.56 3.55 3.54 3.53 3.52 3.52 3.51 3.21 2.89 2.92 6.20 6.47 6.83 6.97 6.96 6.96 7.11 6.89 6.87 6.66 6.39 6.37 6.36 6.36 6.36 6.35 6.35 6.37 6.34 6.34 4.37 4.34 4.35 4.34 4.34 4.34 4.34 4.34 4.34 4.34 4.34 4.35 4.35 4.35 4.36 4.36 4.36 4.37 4.37 4.38 4.39 4.40 4.40 4.40 4.41 4.42 4.42 4.43 4.44 4.45 4.46 4.46 4.47 4.48 4.49 4.51 4.52 4.53 4.54 4.56 4.57 4.58 4.60 3.24 3.26 4.65 2.86 2.74 2.79 2.77 2.76 2.77 2.80 2.82 2.82 2.82 2.95 2.98 2.89 2.93 2.97 2.78 2.78 2.78 2.89 5.23 5.24 5.24 5.27 5.34 5.39 7.08 6.98 6.62 6.51 6.50 6.48 6.39 6.31 6.23 6.16 5.98 5.91 5.90 5.91 5.82 5.79 5.82 5.86 5.82 5.76 5.71 5.66 5.61 5.56 5.51 5.47 5.42 5.37 4.76 4.62 4.58 4.55 4.51 4.48 4.46 4.44 4.41 4.37 4.34 4.31 4.28 4.27 4.23 4.21 4.18 4.16 4.13 4.11 4.09 4.07 4.05 4.03 4.00 3.99 3.97 3.95 3.93 3.91 3.90 3.88 3.86 3.85 3.83 3.82 3.80 3.78 3.77 3.76 3.74 3.71 3.70 3.69 3.67 3.67 3.66 3.65 3.64 3.63 3.62 3.61 3.60 3.67 3.82 3.97 4.09 4.09 4.09 4.08 4.07 4.06 4.05 4.05 4.24 4.48 5.05 5.51 5.51 5.69 6.11 6.63 7.17 6.21 6.17 6.08 6.20 6.30 6.20 6.15 6.19 6.44 6.47 6.08 6.54 6.18 11.95 11.89 2.70 2.68 2.67 2.65 2.65 2.64 2.62 2.66 2.70 576.536523 0.106594 -2.255213 576.536523 0.106594 -2.255213 1134864636.085183 b21 6.243597
